SITE_CODE,SHORT_TITLE,TITLE,SITE_TYPE,SUB_TYPE,STAGE,PROJ_CODE,PROJECT_TITLE,LONGITUDE,LATITUDE,EASTING,NORTHING,MGA_ZONE,COMMODITIES,COMMODITY_GROUP_NAME,TARGET_GROUP_NAME,MAP_LABEL_NAME,INCLUDE_COMMODITY_FLAG,MAP_COMMODITIES,ACTIVE_FLAG,SYMBOL,MAP_SERIES,CONFIDENTIALITY,MAP_SHEET_NO_100K,MAP_SHEET_NAME_100K,MAP_SHEET_NO_250K,MAP_SHEET_NAME_250K,LGA_NAME,DEVELOPMENT_REGION,DISTRICT_NO,DISTRICT_NAME,TECTONIC_UNIT,EXTRACT_DATE
S0000012,Baneygo,Baneygo,Mine,Openpit,Operating,J00009,Duketon / Regis Resources,122.312500000000000,-27.963343999999999,432379,6906668,51,Au Ag,Precious metal,GOLD,,N,,Y,,Operating Mine,Public,3342,DUKETON,SG51-14,DUKETON,"LAVERTON, SHIRE OF","GOLDFIELDS-ESPERANCE, Development Region",38,MT. MARGARET,Eastern Goldfields Superterrane,20230306
S0000030,Golden Crown,Beatons Creek - Golden Crown,Mine,Openpit,Operating,J04143,Beatons Creek JV,120.101597999999996,-21.870332999999999,200460,7578701,51,Au Ag As Cu Bi Sb,Precious metal,GOLD,Beatons Creek,N,,Y,,Operating Mine,Public,2954,NULLAGINE,SF51-05,NULLAGINE,"EAST PILBARA, SHIRE OF","PILBARA, Development Region",46,NULLAGINE,Northeast Pilbara Sub-basin,20230306
S0000033,Big Bell UG,Big Bell Underground,Mine,Decline,Operating,J00017,Cue Gold - Central Murchison,117.655356999999995,-27.318659000000000,564838,6978099,50,Au Ag,Precious metal,GOLD,Big Bell,N,,Y,,Operating Mine,Public,2443,CUE,SG50-15,CUE,"CUE, SHIRE OF","MID-WEST, Development Region",20,CUE,Youanmi Terrane,20230306
S0000045,Aladdin,Aladdin Open Pit,Mine,Openpit,Operating,J00017,Cue Gold - Central Murchison,118.347188000000003,-26.869470000000000,633823,7027311,50,Au Ag,Precious metal,GOLD,Aladdin,N,,Y,,Operating Mine,Public,2544,MEEKATHARRA,SG50-11,BELELE,"MEEKATHARRA, SHIRE OF","MID-WEST, Development Region",51,MEEKATHARRA,Youanmi Terrane,20230306
S0000046,Bluebird,Bluebird - Bluebird South,Mine,Openpit,Operating,J00017,Cue Gold - Central Murchison,118.425101999999995,-26.716249000000001,641754,7044200,50,Au Ag,Precious metal,GOLD,,N,,,,,Public,2544,MEEKATHARRA,SG50-11,BELELE,"MEEKATHARRA, SHIRE OF","MID-WEST, Development Region",51,MEEKATHARRA,Youanmi Terrane,20230306
S0000049,Five Mile Well,Five Mile Well,Mine,Openpit,Operating,J00017,Cue Gold - Central Murchison,118.540880000000001,-26.529259000000000,653521,7064780,50,Au Ag,Precious metal,GOLD,Five Mile Well,N,,Y,,Operating Mine,Public,2644,GABANINTHA,SG50-12,GLENGARRY,"MEEKATHARRA, SHIRE OF","MID-WEST, Development Region",51,MEEKATHARRA,Youanmi Terrane,20230306
S0000102,OK,OK,Mine,Decline,Operating,J00056,Central Norseman,121.784904999999995,-32.218563000000003,385497,6434690,51,Au Ag,Precious metal,GOLD,,N,,,,,Public,3233,NORSEMAN,SI51-02,NORSEMAN,"DUNDAS, SHIRE OF","GOLDFIELDS-ESPERANCE, Development Region",63,DUNDAS M.F.,Eastern Goldfields Superterrane,20230306
S0000181,Morrison,Morrison,Mine,Openpit,Operating,J00102,Golden Mile / KCGM,121.508465999999999,-30.789484000000002,357289,6592777,51,Au Ag,Precious metal,GOLD,,N,,,,,Public,3236,KANOWNA,SH51-10,KURNALPI,"KALGOORLIE-BOULDER, CITY OF","GOLDFIELDS-ESPERANCE, Development Region",26,EAST COOLGARDIE,Eastern Goldfields Superterrane,20230306
S0000198,Yarlarweelor,Yarlarweelor North & South,Mine,Openpit,Operating,J00109,Fortnum,118.360354000000001,-25.343679000000002,636897,7196301,50,Au Ag,Precious metal,GOLD,Yarlarweelor,N,,Y,,Operating Mine,Public,2547,MILGUN,SG50-07,ROBINSON RANGE,"MEEKATHARRA, SHIRE OF","MID-WEST, Development Region",52,PEAK HILL M.F.,Bryah Basin,20230306
S0000258,Goongarrie Lady,Goongarrie Lady,Mine,Openpit,Operating,J04956,Goongarrie Lady,121.184481000000005,-30.081354000000001,325026,6670810,51,Au Ag,Precious metal,GOLD,,N,,,,,Public,3137,BARDOC,SH51-09,KALGOORLIE,"MENZIES, SHIRE OF","GOLDFIELDS-ESPERANCE, Development Region",29,MENZIES,Eastern Goldfields Superterrane,20230306
S0000275,Hawkins Find,Hawkins Find,Mine,Openpit,Operating,J01884,Hawkins Find,121.021960000000007,-30.498387000000001,310164,6624323,51,Au Ag,Precious metal,GOLD,,N,,,,,Public,3137,BARDOC,SH51-09,KALGOORLIE,"COOLGARDIE, SHIRE OF","GOLDFIELDS-ESPERANCE, Development Region",16,KUNANALLING,Eastern Goldfields Superterrane,20230306
S0000357,Jupiter,Jupiter - Joanne - Doublejay,Mine,Openpit,Operating,J00256,Mt Morgans,122.219286999999994,-28.807189000000001,423817,6813126,51,Au Ag,Precious metal,GOLD,,N,,,,,Public,3340,LAVERTON,SH51-02,LAVERTON,"LAVERTON, SHIRE OF","GOLDFIELDS-ESPERANCE, Development Region",39,MT. MORGANS,Eastern Goldfields Superterrane,20230306
S0000389,Harrys Hill,Harrys Hill,Mine,Openpit,Operating,J00184,Aldiss - Karonie,122.558027999999993,-31.045010999999999,457826,6565326,51,Au Ag,Precious metal,GOLD,Harrys Hill,N,,Y,,Operating Mine,Public,3435,ERAYINIA,SH51-14,WIDGIEMOOLTHA,"KALGOORLIE-BOULDER, CITY OF","GOLDFIELDS-ESPERANCE, Development Region",28,KURNALPI,Eastern Goldfields Superterrane,20230306
S0000541,Mt Marven,Mt Marven,Mine,Openpit,Operating,J00256,Mt Morgans,122.175597999999994,-28.812819999999999,419558,6812473,51,Au Ag,Precious metal,GOLD,Mt Marven,N,,Y,,Operating Mine,Public,3340,LAVERTON,SH51-02,LAVERTON,"LAVERTON, SHIRE OF","GOLDFIELDS-ESPERANCE, Development Region",39,MT. MORGANS,Eastern Goldfields Superterrane,20230306
S0000566,Racetrack,Racetrack - Racetrack West,Mine,Openpit,Operating,J00292,Paddington - Mt Pleasant,121.227029999999999,-30.556281999999999,329949,6618233,51,Au Ag,Precious metal,GOLD,Racetrack West,N,,Y,,Operating Mine,Public,3136,KALGOORLIE,SH51-09,KALGOORLIE,"KALGOORLIE-BOULDER, CITY OF","GOLDFIELDS-ESPERANCE, Development Region",24,BROAD ARROW M.F.,Eastern Goldfields Superterrane,20230306
S0000590,Nevoria UG,Nevoria Underground,Mine,Decline,Operating,J00226,Marvel Loch - Southern Cross,119.588401000000005,-31.507265000000000,745825,6511275,50,Au Ag,Precious metal,GOLD,Nevoria,N,,Y,,Operating Mine,Public,2834,CHERITONS FIND,SH50-16,SOUTHERN CROSS,"YILGARN, SHIRE OF","WHEATBELT, Development Region",77,YILGARN M.F.,Youanmi Terrane,20230306
S0000671,Million Dollar North,Million Dollar North,Mine,Openpit,Operating,J00094,Porphyry - Northern Operations,122.285974999999993,-29.799054000000002,430995,6703267,51,Au Ag,Precious metal,GOLD,Million Dollar,N,,Y,,Operating Mine,Public,3338,EDJUDINA,SH51-06,EDJUDINA,"MENZIES, SHIRE OF","GOLDFIELDS-ESPERANCE, Development Region",31,YERILLA,Yilgarn Craton granites,20230306
S0000672,Porphyry UG,Porphyry Underground,Mine,Decline,Operating,J00094,Porphyry - Northern Operations,122.285004000000001,-29.780899000000002,430888,6705278,51,Au Ag,Precious metal,GOLD,,N,,,,,Public,3338,EDJUDINA,SH51-06,EDJUDINA,"MENZIES, SHIRE OF","GOLDFIELDS-ESPERANCE, Development Region",31,YERILLA,Yilgarn Craton granites,20230306
S0000675,Queen Lapage,Queen Lapage,Mine,Openpit,Operating,J00307,Queen Lapage,121.979797000000005,-30.616180000000000,402215,6612490,51,Au Ag,Precious metal,GOLD,,N,,,,,Public,3236,KANOWNA,SH51-10,KURNALPI,"KALGOORLIE-BOULDER, CITY OF","GOLDFIELDS-ESPERANCE, Development Region",25,BULONG,Eastern Goldfields Superterrane,20230306
S0000698,Missouri,Missouri,Mine,Openpit,Operating,J00084,Davyhurst - Lady Ida - Mulline - Riverina - Siberia Gold,120.953665000000001,-30.219187000000002,303050,6655156,51,Au Ag,Precious metal,GOLD,Missouri,N,,Y,,Operating Mine,Public,3037,DAVYHURST,SH51-09,KALGOORLIE,"KALGOORLIE-BOULDER, CITY OF","GOLDFIELDS-ESPERANCE, Development Region",24,BROAD ARROW M.F.,Eastern Goldfields Superterrane,20230306
S0000709,Second Fortune,Second Fortune,Mine,Decline,Operating,J02325,Linden Gold,122.435818999999995,-29.376505999999999,445249,6750167,51,Au Ag,Precious metal,GOLD,Second Fortune,N,,Y,,Operating Mine,Public,3339,LAKE CAREY,SH51-06,EDJUDINA,"MENZIES, SHIRE OF","GOLDFIELDS-ESPERANCE, Development Region",39,MT. MORGANS,Eastern Goldfields Superterrane,20230306
S0000726,Spargos Reward,Spargos Reward,Mine,Openpit,Operating,J00333,Spargos Reward,121.470749999999995,-31.236453999999998,354362,6543185,51,Au Ag,Precious metal,GOLD,,N,,,,,Public,3135,YILMIA,SH51-13,BOORABBIN,"COOLGARDIE, SHIRE OF","GOLDFIELDS-ESPERANCE, Development Region",15,COOLGARDIE,Eastern Goldfields Superterrane,20230306
S0000728,Jasper,Jasper - Aucklands,Mine,Openpit,Operating,J00330,Gwalia - Leonora,121.243896000000007,-28.758970000000001,328546,6817454,51,Au Ag,Precious metal,GOLD,,N,,,,,Public,3140,LEONORA,SH51-01,LEONORA,"LEONORA, SHIRE OF","GOLDFIELDS-ESPERANCE, Development Region",37,MT. MALCOLM,Eastern Goldfields Superterrane,20230306
S0000732,Main Dome,Telfer Main Dome,Mine,Openpit,Operating,J00338,Telfer / Newcrest,122.207117999999994,-21.719564999999999,417996,7598002,51,Au Cu Ag,Precious metal,GOLD,Telfer,Y,"Au, Cu, Ag",Y,,Operating Mine,Public,3354,PATERSON,SF51-06,PATERSON RANGE,"EAST PILBARA, SHIRE OF","PILBARA, Development Region",45,MARBLE BAR,Yeneena Basin,20230306
S0000769,Edna May UG,Edna May Underground,Mine,Decline,Operating,J00357,Edna May - Westonia,118.700153999999998,-31.291771000000001,661822,6536815,50,Au Ag Opalc,Precious metal,GOLD,Edna May,N,,Y,,Operating Mine,Public,2635,WESTONIA,SH50-16,SOUTHERN CROSS,"WESTONIA, SHIRE OF","WHEATBELT, Development Region",77,YILGARN M.F.,South West Terrane,20230306
S0000770,Edna May,Edna May - Westonia,Mine,Openpit,Operating,J00357,Edna May - Westonia,118.698537999999999,-31.290258000000001,661670,6536985,50,Au W Ag,Precious metal,GOLD,,N,,,,,Public,2635,WESTONIA,SH50-16,SOUTHERN CROSS,"WESTONIA, SHIRE OF","WHEATBELT, Development Region",77,YILGARN M.F.,Yilgarn Craton granites,20230306
S0000776,Bulletin,Bulletin - Wiluna,Mine,Openpit,Operating,J02624,Matilda,120.246696000000000,-26.611450000000001,225834,7053646,51,Au Ag,Precious metal,GOLD,,N,,,,,Public,2944,WILUNA,SG51-09,WILUNA,"WILUNA, SHIRE OF","MID-WEST, Development Region",53,WILUNA,Eastern Goldfields Superterrane,20230306
S0000811,Anglo Saxon,Anglo Saxon - Trouser Legs,Mine,Openpit,Operating,J00424,Anglo Saxon - Trouser Legs,122.731478999999993,-30.076781000000000,474122,6672676,51,Au Ag,Precious metal,GOLD,,N,,,,,Public,3437,PINJIN,SH51-10,KURNALPI,"MENZIES, SHIRE OF","GOLDFIELDS-ESPERANCE, Development Region",31,YERILLA,Eastern Goldfields Superterrane,20230306
S0000880,Mt Charlotte,Mt Charlotte,Mine,Shaft,Operating,J00102,Golden Mile / KCGM,121.480903999999995,-30.746441000000001,354587,6597513,51,Au Ag,Precious metal,GOLD,Mt Charlotte,N,,Y,,Operating Mine,Public,3136,KALGOORLIE,SH51-09,KALGOORLIE,"KALGOORLIE-BOULDER, CITY OF","GOLDFIELDS-ESPERANCE, Development Region",26,EAST COOLGARDIE,Eastern Goldfields Superterrane,20230306
S0000909,Porphyry Pit,Porphyry Open Pit,Mine,Openpit,Operating,J00094,Porphyry - Northern Operations,122.285004000000001,-29.780899000000002,430888,6705278,51,Au Ag,Precious metal,GOLD,Porphyry,N,,Y,,Operating Mine,Public,3338,EDJUDINA,SH51-06,EDJUDINA,"MENZIES, SHIRE OF","GOLDFIELDS-ESPERANCE, Development Region",31,YERILLA,Yilgarn Craton granites,20230306
S0000927,Two Boys,Two Boys / Karora,Mine,Decline,Operating,J00152,Higginsville,121.724997999999999,-31.740410000000001,379227,6487630,51,Au Ag,Precious metal,GOLD,,N,,,,,Public,3234,COWAN,SH51-14,WIDGIEMOOLTHA,"COOLGARDIE, SHIRE OF","GOLDFIELDS-ESPERANCE, Development Region",15,COOLGARDIE,Eastern Goldfields Superterrane,20230306
S0000933,Bellevue UG,Bellevue Underground,Mine,Unspecified,Under Development,J04770,Bellevue,120.557700999999994,-27.638940999999999,259030,6940410,51,Au Ag,Precious metal,GOLD,Bellevue,N,,Y,,Operating Mine,Public,3042,SIR SAMUEL,SG51-13,SIR SAMUEL,"LEONORA, SHIRE OF","GOLDFIELDS-ESPERANCE, Development Region",36,LAWLERS,Eastern Goldfields Superterrane,20230306
S0001007,Wandoo S,Wandoo South,Mine,Openpit,Operating,J00026,Boddington Gold,116.357518999999996,-32.753078000000002,439815,6375904,50,Au Cu As Bi Ag,Precious metal,GOLD,Boddington,Y,"Au, Cu, As, Bi, Ag",Y,,Operating Mine,Public,2132,DWELLINGUP,SI50-02,PINJARRA,"BODDINGTON, SHIRE OF","PEEL, Development Region",70,SOUTH WEST M.F.,South West Terrane,20230306
S0001080,Jaccoletti - Mountain Queen,Jaccoletti - Mountain Queen,Mine,Openpit,Operating,J00226,Marvel Loch - Southern Cross,119.484099999999998,-31.473240000000001,736001,6515277,50,Au Ag,Precious metal,GOLD,,N,,,,,Public,2735,SOUTHERN CROSS,SH50-16,SOUTHERN CROSS,"YILGARN, SHIRE OF","WHEATBELT, Development Region",77,YILGARN M.F.,Youanmi Terrane,20230306
S0001130,Sand King,Sand King,Mine,Openpit,Operating,J00084,Davyhurst - Lady Ida - Mulline - Riverina - Siberia Gold,120.962648999999999,-30.210557000000001,303898,6656128,51,Au Ag,Precious metal,GOLD,Sand King,N,,N,,Operating Mine,Public,3037,DAVYHURST,SH51-09,KALGOORLIE,"KALGOORLIE-BOULDER, CITY OF","GOLDFIELDS-ESPERANCE, Development Region",24,BROAD ARROW M.F.,Eastern Goldfields Superterrane,20230306
S0001172,George Palmer,George Palmer Pit,Mine,Openpit,Operating,J00446,Sino - Cape Preston Iron,116.141295999999997,-21.081340999999998,410801,7668609,50,Fe Mag Fe2O3,Iron,IRON ORE,Sino - George Palmer,Y,"Fe, Mag, Fe2O3",Y,,Operating Mine,Public,2155,FORTESCUE,SF50-06,YARRALOOLA,"KARRATHA, CITY OF","PILBARA, Development Region",8,ASHBURTON M.F.,Hamersley Basin,20230306
S0001174,Halleys,Halleys,Mine,Openpit,Operating,J02145,Ravensthorpe - First Quantum,120.374302999999998,-33.633381999999997,256453,6275400,51,Ni Co Mg,Steel alloy metal,NICKEL,Halleys,Y,"Ni, Co, Mg",Y,,Operating Mine,Public,2930,RAVENSTHORPE,SI51-05,RAVENSTHORPE,"RAVENSTHORPE, SHIRE OF","GOLDFIELDS-ESPERANCE, Development Region",74,PHILLIPS RIVER M.F.,Youanmi Terrane,20230306
S0001224,Deepdale J,"Deepdale Mesa J Pits 1-12, J Extended",Mine,Openpit,Operating,J00484,Robe River - Deepdale,116.247354000000001,-21.751436999999999,422175,7594496,50,Fe,Iron,IRON ORE,Mesa J - Deepdale,N,,Y,,Operating Mine,Public,2154,PANNAWONICA,SF50-06,YARRALOOLA,"ASHBURTON, SHIRE OF","PILBARA, Development Region",8,ASHBURTON M.F.,Hamersley Basin,20230306
S0001256,Gossan Hill U/G,Gossan Hill Portal,Mine,Decline,Operating,J00527,Golden Grove,116.962406999999999,-28.765087000000001,496330,6818040,50,Cu Zn Pb Ag Au,Base metal,COPPER - LEAD - ZINC,Golden Grove,Y,"Cu, Zn, Pb, Ag, Au",Y,,Operating Mine,Public,2240,BADJA,SH50-02,YALGOO,"YALGOO, SHIRE OF","MID-WEST, Development Region",59,YALGOO M.F.,Youanmi Terrane,20230306
S0001257,Scuddles U/G,Scuddles Portal - Cervantes,Mine,Decline,Operating,J00527,Golden Grove,116.945103000000003,-28.744567000000000,494640,6820312,50,Zn Pb Cu Ag Au,Base metal,COPPER - LEAD - ZINC,Scuddles,Y,"Zn, Pb, Cu, Ag, Au",Y,,Operating Mine,Public,2240,BADJA,SH50-02,YALGOO,"YALGOO, SHIRE OF","MID-WEST, Development Region",59,YALGOO M.F.,Youanmi Terrane,20230306
S0001258,Goliath North,Goliath North - Mt Keith Satellite,Mine,Openpit,Operating,J00756,Mt Keith / BHP Billiton,120.589209999999994,-27.448650000000001,261729,6961560,51,Ni,Steel alloy metal,NICKEL,,N,,,,,Public,3043,MOUNT KEITH,SG51-13,SIR SAMUEL,"LEONORA, SHIRE OF","GOLDFIELDS-ESPERANCE, Development Region",36,LAWLERS,Eastern Goldfields Superterrane,20230306
S0001260,Cornwall,Cornwall Primary Pegmatite,Mine,Openpit,Operating,J00530,Greenbushes Tantalum,116.059878999999995,-33.855803999999999,413034,6253434,50,Ta Li Sn Ta2O5 SnO2,Speciality metal,TIN - TANTALUM - LITHIUM,,N,,,,,Public,2130,BRIDGETOWN,SI50-06,COLLIE,"BRIDGETOWN-GREENBUSHES, SHIRE OF","SOUTH WEST, Development Region",1,GREENBUSHES M.F.,South West Terrane,20230306
S0001288,Durkin N,Durkin North,Mine,Decline,Under Development,J02628,Kambalda / Mincor,121.661201000000005,-31.164048999999999,372404,6551446,51,Ni Cu Co,Steel alloy metal,NICKEL,Durkin North,Y,"Ni, Cu, Co",Y,,Operating Mine,Public,3235,LAKE LEFROY,SH51-14,WIDGIEMOOLTHA,"KALGOORLIE-BOULDER, CITY OF","GOLDFIELDS-ESPERANCE, Development Region",26,EAST COOLGARDIE,Eastern Goldfields Superterrane,20230306
S0001300,Lanfranchi,Lanfranchi,Mine,Decline,Under Development,J02900,Lanfranchi Tramways,121.842903000000007,-31.505461000000000,390120,6513798,51,Ni Cu,Steel alloy metal,NICKEL,Lanfranchi,Y,"Ni, Cu",Y,,Operating Mine,Public,3234,COWAN,SH51-14,WIDGIEMOOLTHA,"COOLGARDIE, SHIRE OF","GOLDFIELDS-ESPERANCE, Development Region",15,COOLGARDIE,Eastern Goldfields Superterrane,20230306
S0001331,Koolyanobbing K,Koolyanobbing K,Mine,Openpit,Operating,J00559,Koolyanobbing Iron,119.518600000000006,-30.797041000000000,740985,6590177,50,Fe FeSpec OrnStone,Iron,IRON ORE,,N,,,,,Public,2836,SEABROOK,SH50-12,JACKSON,"YILGARN, SHIRE OF","WHEATBELT, Development Region",77,YILGARN M.F.,Youanmi Terrane,20230306
S0001346,Wheelarra 4,Wheelarra 4,Mine,Openpit,Operating,J00573,Jimblebar-Wheelarra-Hashimoto / BHPB,120.137100000000004,-23.380329000000000,207350,7411473,51,Fe,Iron,IRON ORE,,N,,Y,,Operating Mine,Public,2951,MURRAMUNDA,SF51-13,ROBERTSON,"EAST PILBARA, SHIRE OF","PILBARA, Development Region",52,PEAK HILL M.F.,Hamersley Basin,20230306
S0001375,Cliffs,Cliffs Underground,Mine,Decline,Operating,J00440,Leinster,120.541753000000000,-27.304974000000001,256722,6977390,51,Ni Cu,Steel alloy metal,NICKEL,Cliffs,Y,"Ni, Cu",Y,,Operating Mine,Public,3043,MOUNT KEITH,SG51-13,SIR SAMUEL,"LEONORA, SHIRE OF","GOLDFIELDS-ESPERANCE, Development Region",36,LAWLERS,Eastern Goldfields Superterrane,20230306
S0001385,Tom Price,Tom Price Main and Remnants,Mine,Openpit,Operating,J03928,Tom Price / Rio Tinto,117.776094999999998,-22.769347000000000,579672,7481804,50,Fe,Iron,IRON ORE,Tom Price,N,,Y,,Operating Mine,Public,2452,MOUNT LIONEL,SF50-11,MOUNT BRUCE,"ASHBURTON, SHIRE OF","PILBARA, Development Region",47,WEST PILBARA M.F.,Hamersley Basin,20230306
S0001388,Turner Syncline Sec 10,Turner Syncline Section 10,Mine,Openpit,Operating,J00609,Turner Syncline West,117.586303999999998,-22.662210000000002,560234,7493753,50,Fe,Iron,IRON ORE,Western Turner Syncline,N,,Y,,Operating Mine,Public,2452,MOUNT LIONEL,SF50-11,MOUNT BRUCE,"ASHBURTON, SHIRE OF","PILBARA, Development Region",47,WEST PILBARA M.F.,Hamersley Basin,20230306
S0001399,Nammuldi,Nammuldi Lens C,Mine,Openpit,Operating,J03932,Brockman 2 - Nammuldi - Silvergrass - Homestead / Rio Tinto,117.337502000000001,-22.412291000000000,534735,7521498,50,Fe,Iron,IRON ORE,Nammuldi,N,,Y,,Operating Mine,Public,2353,JEERINAH,SF50-11,MOUNT BRUCE,"ASHBURTON, SHIRE OF","PILBARA, Development Region",47,WEST PILBARA M.F.,Hamersley Basin,20230306
S0001402,Mt Whaleback,Mt Whaleback,Mine,Openpit,Operating,J00623,Newman / BHPB,119.675399999999996,-23.365359999999999,773504,7413500,50,Fe,Iron,IRON ORE,Mt Whaleback,N,,Y,,Operating Mine,Public,2851,NEWMAN,SF50-16,NEWMAN,"EAST PILBARA, SHIRE OF","PILBARA, Development Region",52,PEAK HILL M.F.,Hamersley Basin,20230306
S0001405,OB 29,Mt Newman Orebody 29,Mine,Openpit,Operating,J00623,Newman / BHPB,119.703795999999997,-23.382259000000001,776373,7411573,50,Fe,Iron,IRON ORE,,N,,,,,Public,2851,NEWMAN,SF50-16,NEWMAN,"EAST PILBARA, SHIRE OF","PILBARA, Development Region",52,PEAK HILL M.F.,Hamersley Basin,20230306
S0001413,18E,Paraburdoo 18 East,Mine,Openpit,Operating,J03930,Paraburdoo / Rio Tinto,117.631302000000005,-23.255649999999999,564575,7428038,50,Fe,Iron,IRON ORE,,N,,,,,Public,2451,PARABURDOO,SF50-15,TUREE CREEK,"ASHBURTON, SHIRE OF","PILBARA, Development Region",47,WEST PILBARA M.F.,Hamersley Basin,20230306
S0001441,Wonnerup South,Wonnerup South Main Pit,Mine,Openpit,Operating,J01034,Bunbury Area Operations / Tronox,115.415251999999995,-33.670986999999997,353083,6273197,50,HM Ilm Leu Zrn,Speciality metal,HEAVY MINERAL SANDS,Wonnerup,Y,"HM, Ilm, Leu, Zrn",Y,,Operating Mine,Public,1930,BUSSELTON,SI50-05,BUSSELTON,"BUSSELTON, CITY OF","SOUTH WEST, Development Region",70,SOUTH WEST M.F.,Bunbury Trough,20230306
S0001455,Silvergrass Pit 4,Silvergrass Pit 4,Mine,Openpit,Operating,J03932,Brockman 2 - Nammuldi - Silvergrass - Homestead / Rio Tinto,117.303539000000001,-22.317757000000000,531261,7531970,50,Fe,Iron,IRON ORE,Silvergrass,N,,Y,,Operating Mine,Public,2353,JEERINAH,SF50-11,MOUNT BRUCE,"ASHBURTON, SHIRE OF","PILBARA, Development Region",47,WEST PILBARA M.F.,Hamersley Basin,20230306
S0001456,Six Mile Well,Six Mile Well - Mt Keith Satellite,Mine,Openpit,Operating,J00756,Mt Keith / BHP Billiton,120.578239999999994,-27.422664000000001,260588,6964418,51,Ni,Steel alloy metal,NICKEL,Six Mile Well,Y,Ni,Y,,Operating Mine,Public,3043,MOUNT KEITH,SG51-13,SIR SAMUEL,"LEONORA, SHIRE OF","GOLDFIELDS-ESPERANCE, Development Region",36,LAWLERS,Eastern Goldfields Superterrane,20230306
S0001467,Spargoville 5A,Spargoville 5A,Mine,Openpit,Under Development,J00677,Spargoville Nickel,121.506405000000001,-31.353808000000001,357934,6530223,51,Ni Cu Co Pt Pd,Steel alloy metal,NICKEL,,N,,,,,Public,3235,LAKE LEFROY,SH51-14,WIDGIEMOOLTHA,"COOLGARDIE, SHIRE OF","GOLDFIELDS-ESPERANCE, Development Region",15,COOLGARDIE,Eastern Goldfields Superterrane,20230306
S0001471,HD1 SC,Hope Downs 1 South Central,Mine,Openpit,Operating,J00685,Hope Downs Joint Venture,119.107343999999998,-22.998670000000001,716000,7455075,50,Fe,Iron,IRON ORE,,N,,,,,Public,2752,WEELI WOLLI,SF50-12,ROY HILL,"EAST PILBARA, SHIRE OF","PILBARA, Development Region",47,WEST PILBARA M.F.,Hamersley Basin,20230306
S0001479,Tutunup / Iluka,Tutunup / Iluka,Mine,Openpit,Operating,J00456,Capel / Iluka,115.569000000000003,-33.681579999999997,367354,6272230,50,HM Ilm Zrn Leu Mnz,Speciality metal,HEAVY MINERAL SANDS,,N,,,,,Public,2030,DONNYBROOK,SI50-06,COLLIE,"BUSSELTON, CITY OF","SOUTH WEST, Development Region",70,SOUTH WEST M.F.,Bunbury Trough,20230306
S0001488,Wonnerup North,Wonnerup North,Mine,Openpit,Operating,J01034,Bunbury Area Operations / Tronox,115.464073999999997,-33.651778000000000,357577,6275395,50,HM Ilm Zrn Leu Mnz,Speciality metal,HEAVY MINERAL SANDS,,N,,Y,,Operating Mine,Public,1930,BUSSELTON,SI50-05,BUSSELTON,"BUSSELTON, CITY OF","SOUTH WEST, Development Region",70,SOUTH WEST M.F.,Bunbury Trough,20230306
S0001534,23E,Paraburdoo 23 East,Mine,Openpit,Operating,J03930,Paraburdoo / Rio Tinto,117.653998999999999,-23.248840000000001,566900,7428782,50,Fe,Iron,IRON ORE,,N,,,,,Public,2451,PARABURDOO,SF50-15,TUREE CREEK,"ASHBURTON, SHIRE OF","PILBARA, Development Region",47,WEST PILBARA M.F.,Hamersley Basin,20230306
S0001538,Abra UG,Abra Underground,Mine,Decline,Under Development,J00545,Abra - Mulgul,118.585511999999994,-24.638213000000000,660472,7274185,50,Pb Cu Zn Au Ag,Base metal,COPPER - LEAD - ZINC,Abra,Y,"Pb, Cu, Zn, Au, Ag",Y,,Operating Mine,Public,2648,CALYIE,SG50-04,COLLIER,"MEEKATHARRA, SHIRE OF","MID-WEST, Development Region",52,PEAK HILL M.F.,Edmund Basin,20230306
S0001585,Perseverance UG,Perseverance  Underground,Mine,Decline,Operating,J00440,Leinster,120.705596999999997,-27.818118999999999,273997,6920833,51,Ni Cu Gsp,Steel alloy metal,NICKEL,,N,,,,,Public,3042,SIR SAMUEL,SG51-13,SIR SAMUEL,"LEONORA, SHIRE OF","GOLDFIELDS-ESPERANCE, Development Region",36,LAWLERS,Eastern Goldfields Superterrane,20230306
S0001587,Pit 3 - Central,Brockman 4 - Pit 3 Central,Mine,Openpit,Operating,J03931,Brockman 4 Area / Rio Tinto,117.213319999999996,-22.598789000000000,521925,7500877,50,Fe,Iron,IRON ORE,Brockman 4,N,,Y,,Operating Mine,Public,2352,ROCKLEA,SF50-11,MOUNT BRUCE,"ASHBURTON, SHIRE OF","PILBARA, Development Region",47,WEST PILBARA M.F.,Hamersley Basin,20230306
S0001590,84E,Paraburdoo 84 East (Pits 1-5),Mine,Openpit,Operating,J00481,Channar,117.822800000000001,-23.302509000000001,584134,7422752,50,Fe,Iron,IRON ORE,Channar,N,,Y,,Operating Mine,Public,2451,PARABURDOO,SF50-15,TUREE CREEK,"ASHBURTON, SHIRE OF","PILBARA, Development Region",47,WEST PILBARA M.F.,Hamersley Basin,20230306
S0001592,Mesa A,Deepdale Mesa A Pits 1-8,Mine,Openpit,Operating,J00484,Robe River - Deepdale,115.886497000000006,-21.672581000000001,384796,7602999,50,Fe,Iron,IRON ORE,Mesa A,N,,Y,,Operating Mine,Public,2054,YARRALOOLA,SF50-06,YARRALOOLA,"ASHBURTON, SHIRE OF","PILBARA, Development Region",8,ASHBURTON M.F.,Ashburton Basin,20230306
S0001597,Coondiner HD4 East,Coondiner HD4 East,Mine,Openpit,Operating,J00685,Hope Downs Joint Venture,119.574358000000004,-23.145752000000002,763602,7438017,50,Fe,Iron,IRON ORE,Hope Downs 4,N,,Y,,Operating Mine,Public,2851,NEWMAN,SF50-16,NEWMAN,"EAST PILBARA, SHIRE OF","PILBARA, Development Region",47,WEST PILBARA M.F.,Hamersley Basin,20230306
S0001607,MAC C West,MAC - Deposit C West Pit,Mine,Openpit,Operating,J00576,Mining Area C,118.962601000000006,-22.929849999999998,701261,7462902,50,Fe,Iron,IRON ORE,,N,,,,,Public,2652,MUNJINA,SF50-12,ROY HILL,"EAST PILBARA, SHIRE OF","PILBARA, Development Region",47,WEST PILBARA M.F.,Hamersley Basin,20230306
S0001608,MAC D,MAC - Deposit D,Mine,Openpit,Operating,J00576,Mining Area C,118.943200000000004,-22.933430999999999,699266,7462532,50,Fe,Iron,IRON ORE,,N,,,,,Public,2652,MUNJINA,SF50-12,ROY HILL,"EAST PILBARA, SHIRE OF","PILBARA, Development Region",47,WEST PILBARA M.F.,Hamersley Basin,20230306
S0001609,MAC E East,MAC - Deposit E East Pit,Mine,Openpit,Operating,J00576,Mining Area C,118.927299000000005,-22.932541000000001,697636,7462652,50,Fe,Iron,IRON ORE,MAC-E,N,,Y,,Operating Mine,Public,2652,MUNJINA,SF50-12,ROY HILL,"EAST PILBARA, SHIRE OF","PILBARA, Development Region",47,WEST PILBARA M.F.,Hamersley Basin,20230306
S0001610,MAC F,MAC - Deposit F,Mine,Openpit,Operating,J00576,Mining Area C,118.875742000000002,-22.941724000000001,692335,7461704,50,Fe,Iron,IRON ORE,,N,,,,,Public,2652,MUNJINA,SF50-12,ROY HILL,"EAST PILBARA, SHIRE OF","PILBARA, Development Region",47,WEST PILBARA M.F.,Hamersley Basin,20230306
S0001624,South Flank,MAC - South Flank,Mine,Openpit,Operating,J00576,Mining Area C,118.923302000000007,-22.998671000000002,697130,7455334,50,Fe,Iron,IRON ORE,South Flank,N,,Y,,Operating Mine,Public,2652,MUNJINA,SF50-12,ROY HILL,"EAST PILBARA, SHIRE OF","PILBARA, Development Region",47,WEST PILBARA M.F.,Hamersley Basin,20230306
S0001632,OB 25 - Pit 3,Mt Newman Orebody 25 - Pit 3,Mine,Openpit,Operating,J00623,Newman / BHPB,119.818297999999999,-23.329950000000000,788197,7417145,50,Fe,Iron,IRON ORE,Mt Newman 24 25,N,,Y,,Operating Mine,Public,2851,NEWMAN,SF50-16,NEWMAN,"EAST PILBARA, SHIRE OF","PILBARA, Development Region",52,PEAK HILL M.F.,Hamersley Basin,20230306
S0001634,OB 18 Main,Mt Newman Orebody 18 Main - Shovelanna Hill,Mine,Openpit,Operating,J00623,Newman / BHPB,120.042019999999994,-23.333314999999999,197518,7416487,51,Fe,Iron,IRON ORE,Mt Newman 18,N,,Y,,Operating Mine,Public,2951,MURRAMUNDA,SF51-13,ROBERTSON,"EAST PILBARA, SHIRE OF","PILBARA, Development Region",52,PEAK HILL M.F.,Hamersley Basin,20230306
S0001639,OB 24 E,Mt Newman Orebody 24 East,Mine,Openpit,Operating,J00623,Newman / BHPB,119.810799000000003,-23.304199000000001,787485,7420013,50,Fe,Iron,IRON ORE,,N,,,,,Public,2851,NEWMAN,SF50-16,NEWMAN,"EAST PILBARA, SHIRE OF","PILBARA, Development Region",47,WEST PILBARA M.F.,Hamersley Basin,20230306
S0001642,OB 30,Mt Newman Orebody 30,Mine,Openpit,Operating,J00623,Newman / BHPB,119.662327000000005,-23.377238999999999,772143,7412209,50,Fe,Iron,IRON ORE,,N,,,,,Public,2851,NEWMAN,SF50-16,NEWMAN,"EAST PILBARA, SHIRE OF","PILBARA, Development Region",52,PEAK HILL M.F.,Hamersley Basin,20230306
S0001643,OB 35,Mt Newman Orebody 35,Mine,Openpit,Operating,J00623,Newman / BHPB,119.657302999999999,-23.389650000000000,771603,7410843,50,Fe,Iron,IRON ORE,Mt Newman 29 30 35,N,,Y,,Operating Mine,Public,2851,NEWMAN,SF50-16,NEWMAN,"EAST PILBARA, SHIRE OF","PILBARA, Development Region",52,PEAK HILL M.F.,Hamersley Basin,20230306
S0001646,64E,Paraburdoo 64 East,Mine,Openpit,Operating,J00481,Channar,117.774497999999994,-23.303319999999999,579194,7422690,50,Fe,Iron,IRON ORE,,N,,,,,Public,2451,PARABURDOO,SF50-15,TUREE CREEK,"ASHBURTON, SHIRE OF","PILBARA, Development Region",47,WEST PILBARA M.F.,Hamersley Basin,20230306
S0001667,Mt Keith,Mt Keith Open Pit,Mine,Openpit,Operating,J00756,Mt Keith / BHP Billiton,120.541740000000004,-27.229599000000000,256557,6985744,51,Ni,Steel alloy metal,NICKEL,Mt Keith,Y,Ni,Y,,Operating Mine,Public,3043,MOUNT KEITH,SG51-13,SIR SAMUEL,"WILUNA, SHIRE OF","MID-WEST, Development Region",53,WILUNA,Eastern Goldfields Superterrane,20230306
S0001709,CLD,Central Lanthanide (CLD),Mine,Openpit,Operating,J00772,Mt Weld REE / Lynas,122.547565000000006,-28.863980000000002,455875,6807000,51,REE Ce La Nd Sm Gd Eu Y Pr Dy Tb Er Ho Tm Yb Nb Th Ta Lu,Speciality metal,RARE EARTHS,Mt Weld,Y,"REE, Ce, La, Nd, Sm, Gd, Eu, Y, Pr, Dy, Tb, Er, Ho, Tm, Yb, Nb, Th, Ta, Lu",Y,,Operating Mine,Public,3440,BURTVILLE,SH51-02,LAVERTON,"LAVERTON, SHIRE OF","GOLDFIELDS-ESPERANCE, Development Region",38,MT. MARGARET,Large igneous provinces and dyke swarms,20230306
S0001726,Boddington Bauxite,Boddington Bauxite,Mine,Openpit,Operating,J00776,Worsley,116.455901999999995,-32.931561000000002,449133,6356168,50,Bx,Alumina,BAUXITE - ALUMINA,Boddington,N,,Y,,Operating Mine,Public,2132,DWELLINGUP,SI50-02,PINJARRA,"BODDINGTON, SHIRE OF","PEEL, Development Region",70,SOUTH WEST M.F.,South West Terrane,20230306
S0001731,Greenbushes Central Lode Pit,Greenbushes C3 Spodumene,Mine,Openpit,Operating,J04090,Greenbushes Lithium,116.065793999999997,-33.858919999999998,413584,6253094,50,Li Li2O Ta Sn,Speciality metal,TIN - TANTALUM - LITHIUM,Greenbushes,Y,"Li, Li2O, Ta, Sn",Y,,Operating Mine,Public,2130,BRIDGETOWN,SI50-06,COLLIE,"BRIDGETOWN-GREENBUSHES, SHIRE OF","SOUTH WEST, Development Region",1,GREENBUSHES M.F.,South West Terrane,20230306
S0001739,Willowdale,Willowdale,Mine,Openpit,Operating,J00779,Wagerup-Pinjarra / Alcoa,116.014801000000006,-32.920718999999998,407882,6357071,50,Bx,Alumina,BAUXITE - ALUMINA,Orion - Willowdale,N,,N,,Operating Mine,Public,2132,DWELLINGUP,SI50-02,PINJARRA,"WAROONA, SHIRE OF","PEEL, Development Region",70,SOUTH WEST M.F.,Yilgarn Craton granites,20230306
S0001743,Toy Rd Lot 7-Area 1,Toy Rd Bindoon Lot 7-Area 1,Mine,Openpit,Operating,J02697,Bindoon Hill Gravel Supply,116.133032999999998,-31.325337999999999,417515,6534017,50,Gvl,Construction material,CONSTRUCTION MATERIALS,,N,,,,,Public,2135,CHITTERING,SH50-14,PERTH,"CHITTERING, SHIRE OF","WHEATBELT, Development Region",70,SOUTH WEST M.F.,Yilgarn Craton granites,20230306
S0001794,Koorda,Koorda,Mine,Openpit,Operating,J00808,Koorda,117.405716999999996,-30.751718000000000,538832,6597843,50,Gp,Industrial mineral,GYPSUM,Koorda,Y,Gp,Y,,Operating Mine,Public,2336,KOORDA,SH50-11,BENCUBBIN,"KOORDA, SHIRE OF","WHEATBELT, Development Region",70,SOUTH WEST M.F.,Yilgarn Craton granites,20230306
S0001798,Burran Rock South,Burran Rock South,Mine,Openpit,Operating,J00811,Burran Rock South,117.989468000000002,-31.347645000000000,594118,6531446,50,Gp,Industrial mineral,GYPSUM,Burran Rock,Y,Gp,Y,,Operating Mine,Public,2435,TRAYNING,SH50-15,KELLERBERRIN,"KELLERBERRIN, SHIRE OF","WHEATBELT, Development Region",70,SOUTH WEST M.F.,Yilgarn Craton granites,20230306
S0001802,Lake Camm,Lake Camm,Mine,Openpit,Operating,J00816,Lake Camm,119.557118000000003,-32.985872999999998,738946,6347375,50,Gp,Industrial mineral,GYPSUM,Lake Camm,Y,Gp,Y,,Operating Mine,Public,2832,IRONCAP,SI50-04,HYDEN,"LAKE GRACE, SHIRE OF","WHEATBELT, Development Region",70,SOUTH WEST M.F.,Yilgarn Craton granites,20230306
S0001810,Lake Gulson,Lake Gulson,Mine,Openpit,Operating,J00823,Lake Gulson,119.466953000000004,-32.819761000000000,730950,6365998,50,Gp,Industrial mineral,GYPSUM,Lake Gulson,Y,Gp,Y,,Operating Mine,Public,2732,HURLSTONE,SI50-04,HYDEN,"LAKE GRACE, SHIRE OF","WHEATBELT, Development Region",70,SOUTH WEST M.F.,Yilgarn Craton granites,20230306
S0001813,Lake Hillman M70/136,Lake Hillman M70/136,Mine,Openpit,Operating,J00826,Lake Hillman / Adelaide Brighton,117.173833000000002,-30.313220999999999,516713,6646494,50,Gp Cement,Industrial mineral,GYPSUM,Lake Hillman,Y,"Gp, Cement",Y,,Operating Mine,Public,2337,KALANNIE,SH50-11,BENCUBBIN,"DALWALLINU, SHIRE OF","WHEATBELT, Development Region",70,SOUTH WEST M.F.,Yilgarn Craton granites,20230306
S0001815,Pippingarra/NW Quarries,Pippingarra / North West Quarries,Mine,Openpit,Operating,J00828,Pippingarra Quarry / North West Quarries,118.761367000000007,-20.573671000000001,683593,7724042,50,Agg Fel Mica Gran Sd,Construction material,CONSTRUCTION MATERIALS,,N,,,,,Public,2656,WALLARINGA,SF50-04,PORT HEDLAND,"PORT HEDLAND, TOWN OF","PILBARA, Development Region",45,MARBLE BAR,Split Rock Supersuite,20230306
S0001835,Kununurra 1/JSW,Kununurra 1 / JSW,Mine,Openpit,Operating,J00842,Kununurra / JSW,128.701726000000008,-15.735512000000000,468045,8260298,52,Gvl Sd,Construction material,CONSTRUCTION MATERIALS,,N,,,,,Public,4666,KUNUNURRA,SD52-14,CAMBRIDGE GULF,"WYNDHAM-EAST KIMBERLEY, SHIRE OF","KIMBERLEY, Development Region",80,KIMBERLEY M.F.,Kalkarindji Large Igneous Province,20230306
S0001837,Comet Hill NW/Boral,Comet Hill Northwest / Boral,Mine,Openpit,Operating,J00844,Comet Hill-Gnarlabine / Boral,121.040170000000003,-31.028870000000001,312942,6565549,51,Gvl Sd,Construction material,CONSTRUCTION MATERIALS,,N,,,,,Public,3135,YILMIA,SH51-13,BOORABBIN,"COOLGARDIE, SHIRE OF","GOLDFIELDS-ESPERANCE, Development Region",15,COOLGARDIE,Yilgarn Craton granites,20230306
S0001838,Mt Welcome North,Mt Welcome North,Mine,Openpit,Operating,J00845,Mt Welcome,117.096892999999994,-20.690935000000000,510091,7712054,50,Gvl,Construction material,CONSTRUCTION MATERIALS,,N,,,,,Public,2356,ROEBOURNE,SF50-03,ROEBOURNE,"KARRATHA, CITY OF","PILBARA, Development Region",47,WEST PILBARA M.F.,Gorge Creek Basin,20230306
S0001842,Nillibubbaca B,Nillibubbaca-Yeeda (Part B - Royalties),Mine,Openpit,Operating,J01542,Nillibubbaca - Yeeda / Kimberley Quarry,123.078745999999995,-17.713668999999999,508350,8041491,51,Agg Brck Sd Aggc,Construction material,CONSTRUCTION MATERIALS,,N,,,,,Public,3562,CLARKSON,SE51-07,DERBY,"DERBY/WEST KIMBERLEY, SHIRE OF","KIMBERLEY, Development Region",4,WEST KIMBERLEY M.F.,Fitzroy Trough,20230306
S0001848,Cervantes/Crossland,Cervantes / Crossland,Mine,Openpit,Operating,J00855,Cervantes / Crossland,115.094905999999995,-30.474575000000002,317122,6627084,50,Sd,Construction material,CONSTRUCTION MATERIALS,,N,,,,,Public,1937,HILL RIVER,SH50-09,HILL RIVER,"DANDARAGAN, SHIRE OF","WHEATBELT, Development Region",70,SOUTH WEST M.F.,Beagle Ridge,20230306
S0001855,Aggregate Quarry/Holcim,Newman Aggregate / Holcim,Mine,Openpit,Operating,J00862,Newman Aggregate / Holcim,119.696320999999998,-23.321279000000001,775735,7418344,50,Agg Aggc Brck Sd Ball Dlt,Construction material,CONSTRUCTION MATERIALS,,N,,,,,Public,2851,NEWMAN,SF50-16,NEWMAN,"EAST PILBARA, SHIRE OF","PILBARA, Development Region",52,PEAK HILL M.F.,South Pilbara Sub-basin,20230306
S0001856,Turner River South/Holcim,Turner River South Sand / Holcim,Mine,Openpit,Operating,J04450,Turner River Dune Sand / Holcim,118.521545000000003,-20.619997000000001,658543,7719166,50,Sd Gvl,Construction material,CONSTRUCTION MATERIALS,,N,,,,,Public,2656,WALLARINGA,SF50-04,PORT HEDLAND,"PORT HEDLAND, TOWN OF","PILBARA, Development Region",45,MARBLE BAR,Soanesville Basin,20230306
S0001857,Warrawanda Ck 1/Holcim,Warrawanda Creek 1 / Holcim,Mine,Openpit,Operating,J00864,Warrawanda Creek / Holcim,119.871870999999999,-23.452097999999999,793409,7403503,50,Sd,Construction material,CONSTRUCTION MATERIALS,,N,,,,,Public,2851,NEWMAN,SF50-16,NEWMAN,"MEEKATHARRA, SHIRE OF","MID-WEST, Development Region",52,PEAK HILL M.F.,"Pilbara Craton, Sylvania Inlier",20230306
S0001859,Kangaroo Hills,Kangaroo Hills,Mine,Openpit,Operating,J02050,Kangaroo Hills - Coolgardie South,121.151525000000007,-30.987116000000000,323495,6570360,51,Sd,Construction material,CONSTRUCTION MATERIALS,,N,,,,,Public,3136,KALGOORLIE,SH51-09,KALGOORLIE,"COOLGARDIE, SHIRE OF","GOLDFIELDS-ESPERANCE, Development Region",15,COOLGARDIE,Yilgarn Craton granites,20230306
S0001860,Goods Road East,Goods Road East - Chidlow / Tuma,Mine,Openpit,Operating,J00867,Chidlow / Tuma,116.387139000000005,-31.904555999999999,442052,6469980,50,Sd Gvl Clay,Construction material,CONSTRUCTION MATERIALS,,N,,,,,Public,2134,WOOROLOO,SH50-14,PERTH,"NORTHAM, SHIRE OF","WHEATBELT, Development Region",70,SOUTH WEST M.F.,Yilgarn Craton granites,20230306
S0001861,Dampier Salt Pond,Dampier Salt Pond,Mine,Pond,Operating,J00868,Dampier Salt,116.718041999999997,-20.724024000000000,470642,7708369,50,Salt,Industrial mineral,SALT,Dampier,Y,Salt,Y,,Operating Mine,Public,2256,DAMPIER,SF50-02,DAMPIER,"KARRATHA, CITY OF","PILBARA, Development Region",47,WEST PILBARA M.F.,Maitland River Supersuite,20230306
S0001864,Useless Loop Salt Conc Ponds,Useless Loop Salt Concentrator Ponds,Mine,Pond,Operating,J00871,Shark Bay Salt,113.402454000000006,-26.157684000000000,740153,7104633,49,Salt,Industrial mineral,SALT,Shark Bay,Y,Salt,Y,,Operating Mine,Public,1545,EDEL,SG49-12,EDEL,"SHARK BAY, SHIRE OF","GASCOYNE, Development Region",9,GASCOYNE M.F.,Gascoyne Platform,20230306
S0001866,Lake Deborah East Pond,Lake Deborah East Pond,Mine,Pond,Operating,J00872,Lake Deborah East Salt,119.402583000000007,-30.669498999999998,730185,6604562,50,Salt,Industrial mineral,SALT,Lake Deborah East,Y,Salt,Y,,Operating Mine,Public,2736,BULLFINCH,SH50-12,JACKSON,"YILGARN, SHIRE OF","WHEATBELT, Development Region",77,YILGARN M.F.,Yilgarn Craton granites,20230306
S0001868,Bulagin,Bulagin,Mine,Pond,Operating,J00874,Bulagin,117.337085999999999,-31.314007000000000,532074,6535548,50,Salt,Industrial mineral,SALT,Bulagin,Y,Salt,Y,,Operating Mine,Public,2335,DOWERIN,SH50-15,KELLERBERRIN,"WYALKATCHEM, SHIRE OF","WHEATBELT, Development Region",70,SOUTH WEST M.F.,Yilgarn Craton granites,20230306
S0001885,Yanchep/WA Lmst,Military Rd Yanchep / WA Limestone,Mine,Openpit,Operating,J00888,Yanchep / WA Limestone,115.671997000000005,-31.434954000000001,373794,6521429,50,Lst Lst-Lsd,Construction material,LIMESTONE - LIMESAND,,N,,,,,Public,2035,GINGIN,SH50-14,PERTH,"GINGIN, SHIRE OF","WHEATBELT, Development Region",70,SOUTH WEST M.F.,Mandurah Terrace,20230306
S0001887,Point D'Entrecasteaux/WALCO,Point D'Entrecasteaux / WALCO,Mine,Openpit,Operating,J00890,Point D'Entrecasteaux / WALCO,116.013385999999997,-34.828887000000002,409781,6145489,50,Lst Lsd Lst-Lsd,Construction material,LIMESTONE - LIMESAND,,N,,,,,Public,2128,NORTHCLIFFE,SI50-10,PEMBERTON,"MANJIMUP, SHIRE OF","SOUTH WEST, Development Region",70,SOUTH WEST M.F.,Biranup Zone,20230306
S0001888,Cutler Rd/Lmst BBCo,Cutler Rd / Limestone Building Blocks Company,Mine,Openpit,Operating,J00891,Cutler Rd Nowergup / WA Limestone,115.752398999999997,-31.607050999999998,381653,6502443,50,Lst Dst Aglime,Construction material,LIMESTONE - LIMESAND,,N,,,,,Public,2034,PERTH,SH50-14,PERTH,"WANNEROO, CITY OF",METRO,70,SOUTH WEST M.F.,Mandurah Terrace,20230306
S0001891,Lancelin/Candeloro,Lancelin / Candeloro,Mine,Openpit,Operating,J00894,Lancelin / Candeloro,115.327284000000006,-30.997121000000000,340297,6569516,50,Lst Lsd Lst-Lsd Aglime,Construction material,LIMESTONE - LIMESAND,,N,,,,,Public,1936,WEDGE ISLAND,SH50-09,HILL RIVER,"GINGIN, SHIRE OF","WHEATBELT, Development Region",70,SOUTH WEST M.F.,Vlaming Sub-basin,20230306
S0001892,Lancelin/Westdeen,Lancelin / Westdeen,Mine,Openpit,Operating,J00895,Lancelin / Westdeen,115.347549000000001,-31.030425000000001,342287,6565854,50,Aglime Lsd Lst-Lsd Lst,Industrial mineral,LIMESTONE - LIMESAND,Lancelin,Y,"Aglime, Lsd, Lst-Lsd, Lst",Y,,Operating Mine,Public,1935,LEDGE POINT,SH50-13,LEDGE POINT,"GINGIN, SHIRE OF","WHEATBELT, Development Region",70,SOUTH WEST M.F.,Vlaming Sub-basin,20230306
S0001894,Bandalup N2 West,Bandalup Magnesite N2 West,Mine,Openpit,Operating,J00897,Bandalup Magnesite,120.363439000000000,-33.607610999999999,255372,6278233,51,MgCO3 Aglime,Industrial mineral,MAGNESITE,Bandalup,Y,"MgCO3, Aglime",N,,Operating Mine,Public,2930,RAVENSTHORPE,SI51-05,RAVENSTHORPE,"RAVENSTHORPE, SHIRE OF","GOLDFIELDS-ESPERANCE, Development Region",74,PHILLIPS RIVER M.F.,Youanmi Terrane,20230306
S0001897,Garnet Ice,Fraser Range - Garnet Ice,Mine,Openpit,Operating,J00900,Fraser Range Granite-Dolerite,122.669225999999995,-32.078786999999998,468783,6450783,51,Gran Dst,Construction material,DIMENSION STONE,,N,,,,,Public,3433,FRASER RANGE,SI51-02,NORSEMAN,"DUNDAS, SHIRE OF","GOLDFIELDS-ESPERANCE, Development Region",63,DUNDAS M.F.,Biranup Zone,20230306
S0001946,Walkaway/Holcim,Walkaway / Holcim,Mine,Openpit,Operating,J00937,Walkaway / Holcim,114.798102999999998,-28.860120999999999,285218,6805518,50,Agg,Construction material,CONSTRUCTION MATERIALS,,N,,,,,Public,1840,GERALDTON,SH50-01,GERALDTON,"GREATER GERALDTON, CITY OF","MID-WEST, Development Region",70,SOUTH WEST M.F.,"Pinjarra Orogen, Northampton Inlier",20230306
S0001959,Gascoyne River M09/31,Gascoyne River Sand M09/31,Mine,Openpit,Operating,J04825,Gascoyne River / Ford-Brandenburg,113.736329999999995,-24.847546000000001,776530,7249157,49,Sd,Construction material,CONSTRUCTION MATERIALS,,N,,,,,Public,1648,CARNARVON,SG49-04,QUOBBA,"CARNARVON, SHIRE OF","GASCOYNE, Development Region",9,GASCOYNE M.F.,Gascoyne Platform,20230306
S0001962,Hopkins Rd 1/Lst BBCo,Hopkins Road 1 Nowergup / Limestone Building Block Co,Mine,Openpit,Operating,J00947,Hopkins Rd Nowergup / Limestone Building Block,115.755999000000003,-31.608405999999999,381997,6502297,50,Lst Lst-Lsd,Construction material,LIMESTONE - LIMESAND,,N,,,,,Public,2034,PERTH,SH50-14,PERTH,"WANNEROO, CITY OF",METRO,70,SOUTH WEST M.F.,Mandurah Terrace,20230306
S0001965,Sullivan Ck South/Holcim,Sullivan Creek South / Holcim,Mine,Openpit,Operating,J00949,Sullivan Creek Sand / Holcim,121.166511000000000,-28.747018000000001,320969,6818664,51,Sd,Construction material,CONSTRUCTION MATERIALS,,N,,,,,Public,3140,LEONORA,SH51-01,LEONORA,"LEONORA, SHIRE OF","GOLDFIELDS-ESPERANCE, Development Region",37,MT. MALCOLM,Yilgarn Craton granites,20230306
S0001969,Willyung,Albany - Willyung / Holcim,Mine,Openpit,Operating,J00953,Albany - Willyung / Holcim,117.849485000000001,-34.946128000000002,577569,6132602,50,Agg Dst,Construction material,CONSTRUCTION MATERIALS,,N,,,,,Public,2428,MOUNT BARKER,SI50-11,MOUNT BARKER,"ALBANY, CITY OF","GREAT SOUTHERN, Development Region",70,SOUTH WEST M.F.,Nornalup Zone,20230306
S0001996,Byford/Hanson,Byford / Hanson,Mine,Openpit,Operating,J00963,Byford / Hanson Construction,116.029786999999999,-32.272430000000000,408628,6428954,50,Aggc Agg,Construction material,CONSTRUCTION MATERIALS,,N,,,,,Public,2133,JARRAHDALE,SI50-02,PINJARRA,"SERPENTINE-JARRAHDALE, SHIRE OF","PEEL, Development Region",70,SOUTH WEST M.F.,Yilgarn Craton granites,20230306
S0002011,Cobbler Pool Rd Lot 111 / Boral,Cobbler Pool Road Lot 111 Toodyay / Boral,Mine,Openpit,Operating,J00967,Toodyay - Cobbler Pool,116.282883999999996,-31.575631999999999,431953,6506377,50,Agg Gran,Construction material,CONSTRUCTION MATERIALS,,N,,,,,Public,2134,WOOROLOO,SH50-14,PERTH,"TOODYAY, SHIRE OF","WHEATBELT, Development Region",70,SOUTH WEST M.F.,Yilgarn Craton granites,20230306
S0002037,Gelorup 1/Holcim,Gelorup 1 - Bunbury / Holcim,Mine,Openpit,Operating,J00971,Gelorup - Bunbury / Holcim,115.652872000000002,-33.398032999999998,374720,6303775,50,Agg Bas Aga,Construction material,CONSTRUCTION MATERIALS,,N,,,,,Public,2031,BUNBURY,SI50-06,COLLIE,"CAPEL, SHIRE OF","SOUTH WEST, Development Region",70,SOUTH WEST M.F.,Bunbury Trough,20230306
S0002055,Gosnells/Holcim,Gosnells / Holcim,Mine,Openpit,Operating,J00975,Gosnells / Holcim,116.030202000000003,-32.073618000000003,408469,6450993,50,Agg,Construction material,CONSTRUCTION MATERIALS,,N,,,,,Public,2133,JARRAHDALE,SI50-02,PINJARRA,"GOSNELLS, CITY OF",METRO,70,SOUTH WEST M.F.,Yilgarn Craton granites,20230306
S0002104,Sams Creek - Point Samson,Sams Creek - Point Samson,Mine,Openpit,Operating,J00993,Sams Creek - Point Samson / Karratha Earthmoving,117.186514000000003,-20.619548999999999,519433,7719946,50,Sd,Construction material,CONSTRUCTION MATERIALS,,N,,,,,Public,2356,ROEBOURNE,SF50-03,ROEBOURNE,"KARRATHA, CITY OF","PILBARA, Development Region",47,WEST PILBARA M.F.,Gorge Creek Basin,20230306
S0002105,Pickering Brook Gravel,Pickering Brook Gravel,Mine,Openpit,Operating,J00994,Pickering Brook Gravel,116.160556999999997,-32.062071000000003,420762,6452376,50,Gvl,Construction material,CONSTRUCTION MATERIALS,,N,,,,,Public,2133,JARRAHDALE,SI50-02,PINJARRA,"KALAMUNDA, CITY OF",METRO,70,SOUTH WEST M.F.,Yilgarn Craton granites,20230306
S0002166,Cassiterite,Cassiterite,Mine,Openpit,Operating,J00720,Wodgina Mining Assets / Mineral Resources,118.674092000000002,-21.190332000000001,673783,7655870,50,Li Ta Sn Rb,Speciality metal,TIN - TANTALUM - LITHIUM,Wodgina,Y,"Li, Ta, Sn, Rb",Y,,Operating Mine,Public,2655,WODGINA,SF50-08,MARBLE BAR,"PORT HEDLAND, TOWN OF","PILBARA, Development Region",45,MARBLE BAR,Gorge Creek Basin,20230306
S0002167,Dowling Pit,Mt Cattlin - Dowling Openpit,Mine,Openpit,Operating,J01005,Mt Cattlin Spodumene,120.033981999999995,-33.562505999999999,224650,6282408,51,Li Ta Nb,Speciality metal,TIN - TANTALUM - LITHIUM,Mt Cattlin,Y,"Li, Ta, Nb",Y,,Operating Mine,Public,2930,RAVENSTHORPE,SI51-05,RAVENSTHORPE,"RAVENSTHORPE, SHIRE OF","GOLDFIELDS-ESPERANCE, Development Region",74,PHILLIPS RIVER M.F.,Youanmi Terrane,20230306
S0002175,Lake Tay M74/49,Lake Tay M74/49,Mine,Openpit,Operating,J01009,Lake Tay,120.735304999999997,-33.032876000000002,288498,6342789,51,Gp,Industrial mineral,GYPSUM,Lake Tay,Y,Gp,Y,,Operating Mine,Public,3031,NORTHOVER,SI51-05,RAVENSTHORPE,"ESPERANCE, SHIRE OF","GOLDFIELDS-ESPERANCE, Development Region",74,PHILLIPS RIVER M.F.,Scaddan Embayment,20230306
S0002196,Bullant,Bullant - Ora Banda,Mine,Decline,Operating,J00292,Paddington - Mt Pleasant,121.057800000000000,-30.527470000000001,313660,6621160,51,Au Ag,Precious metal,GOLD,Bullant,N,,Y,,Operating Mine,Public,3136,KALGOORLIE,SH51-09,KALGOORLIE,"COOLGARDIE, SHIRE OF","GOLDFIELDS-ESPERANCE, Development Region",16,KUNANALLING,Eastern Goldfields Superterrane,20230306
S0002232,Rothsay UG,Rothsay Underground,Mine,Decline,Under Development,J00315,Rothsay,116.877077999999997,-29.288678999999998,488060,6760024,50,Au Ag,Precious metal,GOLD,Rothsay,N,,Y,,Operating Mine,Public,2239,ROTHSAY,SH50-06,PERENJORI,"PERENJORI, SHIRE OF","MID-WEST, Development Region",59,YALGOO M.F.,Youanmi Terrane,20230306
S0002289,Harbour Lights UG,Harbour Lights Underground,Mine,Decline,Operating,J00330,Gwalia - Leonora,121.321999000000005,-28.873690000000000,336352,6804851,51,Au Ag,Precious metal,GOLD,,N,,,,,Public,3140,LEONORA,SH51-01,LEONORA,"LEONORA, SHIRE OF","GOLDFIELDS-ESPERANCE, Development Region",37,MT. MALCOLM,Eastern Goldfields Superterrane,20230306
S0002383,Sons of Gwalia UG,Sons of Gwalia Underground,Mine,Decline,Operating,J00330,Gwalia - Leonora,121.333473999999995,-28.918420999999999,337541,6799910,51,Au Ag,Precious metal,GOLD,Sons of Gwalia,N,,Y,,Operating Mine,Public,3140,LEONORA,SH51-01,LEONORA,"LEONORA, SHIRE OF","GOLDFIELDS-ESPERANCE, Development Region",37,MT. MALCOLM,Eastern Goldfields Superterrane,20230306
S0002384,Gault,Gault,Mine,Unspecified,Operating,J01073,Tampia,118.451697999999993,-32.162350000000004,636884,6440645,50,Au Ag,Precious metal,GOLD,,N,,,,,Public,2533,NAREMBEEN,SI50-03,CORRIGIN,"NAREMBEEN, SHIRE OF","WHEATBELT, Development Region",70,SOUTH WEST M.F.,Yilgarn Craton granites,20230306
S0002386,Telfer UG,Telfer Underground,Mine,Decline,Operating,J00338,Telfer / Newcrest,122.202731999999997,-21.722441000000000,417544,7597682,51,Au Ag,Precious metal,GOLD,,N,,,,,Public,3354,PATERSON,SF51-06,PATERSON RANGE,"EAST PILBARA, SHIRE OF","PILBARA, Development Region",45,MARBLE BAR,Yeneena Basin,20230306
S0002403,Water Reserve,Water Reserve - Broome,Mine,Openpit,Operating,J00942,Coconut Wells - Broome,122.271372999999997,-17.885652000000000,422814,8022315,51,Sd Gvl,Construction material,CONSTRUCTION MATERIALS,,N,,,,,Public,3362,BROOME,SE51-06,BROOME,"BROOME, SHIRE OF","KIMBERLEY, Development Region",4,WEST KIMBERLEY M.F.,Jurgurra Terrace,20230306
S0002432,Lake Cowan South,Lake Cowan South Gypsum - M63/148,Mine,Openpit,Operating,J01324,Lake Cowan Gypsum / Whitfield,121.741156000000004,-32.233418000000000,381394,6432996,51,Gp,Industrial mineral,GYPSUM,Lake Cowan,Y,Gp,Y,,Operating Mine,Public,3233,NORSEMAN,SI51-02,NORSEMAN,"DUNDAS, SHIRE OF","GOLDFIELDS-ESPERANCE, Development Region",63,DUNDAS M.F.,Eastern Goldfields Superterrane,20230306
S0002464,Denison Limesand/Cockburn,Denison Limesand / Cockburn,Mine,Openpit,Operating,J01105,Denison Limesand / Cockburn,114.935518000000002,-29.289825000000000,299460,6758136,50,Lsd,Construction material,LIMESTONE - LIMESAND,,N,,,,,Public,1839,DONGARA,SH50-05,DONGARA,"IRWIN, SHIRE OF","MID-WEST, Development Region",70,SOUTH WEST M.F.,Dongara Terrace,20230306
S0002467,Orange Grove / Boral,Orange Grove / Boral,Mine,Openpit,Operating,J01108,Maddington - Orange Grove / Boral,116.031515999999996,-32.039310999999998,408559,6454797,50,Agg Gvl Aggc,Construction material,CONSTRUCTION MATERIALS,,N,,,,,Public,2133,JARRAHDALE,SI50-02,PINJARRA,"GOSNELLS, CITY OF",METRO,70,SOUTH WEST M.F.,Yilgarn Craton granites,20230306
S0002520,Roebuck Plains South/McCorry Brown,Roebuck Plains South Sand / McCorry Brown,Mine,Openpit,Operating,J01131,Roebuck Plains / McCorry Brown,122.613209999999995,-18.011673999999999,459056,8008480,51,Sd,Construction material,CONSTRUCTION MATERIALS,,N,,,,,Public,3461,ROEBUCK PLAINS,SE51-10,LAGRANGE,"BROOME, SHIRE OF","KIMBERLEY, Development Region",4,WEST KIMBERLEY M.F.,Jurgurra Terrace,20230306
S0002535,Edwards,Edwards - Nullagine,Mine,Openpit,Operating,J04143,Beatons Creek JV,120.098121000000006,-21.868988999999999,200097,7578843,51,Au Ag,Precious metal,GOLD,,N,,,,,Public,2954,NULLAGINE,SF51-05,NULLAGINE,"EAST PILBARA, SHIRE OF","PILBARA, Development Region",46,NULLAGINE,Northeast Pilbara Sub-basin,20230306
S0002536,Lake Deborah East Sand,Lake Deborah East Sand,Mine,Openpit,Operating,J01142,Lake Deborah East Sand,119.459800999999999,-30.962139000000001,734954,6571998,50,Sd,Construction material,CONSTRUCTION MATERIALS,,N,,,,,Public,2736,BULLFINCH,SH50-12,JACKSON,"YILGARN, SHIRE OF","WHEATBELT, Development Region",77,YILGARN M.F.,Youanmi Terrane,20230306
S0002541,Golden Funnel,Golden Funnel,Mine,Openpit,Operating,J00292,Paddington - Mt Pleasant,121.247078999999999,-30.579425000000001,331912,6615698,51,Au Ag,Precious metal,GOLD,,N,,,,,Public,3136,KALGOORLIE,SH51-09,KALGOORLIE,"KALGOORLIE-BOULDER, CITY OF","GOLDFIELDS-ESPERANCE, Development Region",24,BROAD ARROW M.F.,Eastern Goldfields Superterrane,20230306
S0002547,Dongara Aglime,Dongara Aglime,Mine,Openpit,Operating,J01149,Dongara - Denison / Westdeen Aglime,114.926023999999998,-29.279036000000001,298517,6759315,50,Aglime Lsd Lst-Lsd Lst,Industrial mineral,LIMESTONE - LIMESAND,Dongara,Y,"Aglime, Lsd, Lst-Lsd, Lst",Y,,Operating Mine,Public,1839,DONGARA,SH50-05,DONGARA,"IRWIN, SHIRE OF","MID-WEST, Development Region",70,SOUTH WEST M.F.,Dongara Terrace,20230306
S0002553,Karratha Stone/Bell,Karratha Stone / Bell,Mine,Openpit,Operating,J01154,Karratha Stone / Bell,116.949645000000004,-21.059183000000001,494769,7671302,50,Sdst Dst Brck,Construction material,DIMENSION STONE,,N,,,,,Public,2255,PINDERI HILLS,SF50-06,YARRALOOLA,"KARRATHA, CITY OF","PILBARA, Development Region",47,WEST PILBARA M.F.,Northwest Pilbara Sub-basin,20230306
S0002568,Murat Rd/Exmouth Quarries,Murat Road / Exmouth Quarries,Mine,Openpit,Operating,J01168,Murat Road Limestone / Exmouth Quarries,114.114367999999999,-21.975852000000000,202001,7567036,50,Lst Gvl Brck,Construction material,LIMESTONE - LIMESAND,,N,,,,,Public,1754,EXMOUTH,SF50-05,ONSLOW,"EXMOUTH, SHIRE OF","GASCOYNE, Development Region",8,ASHBURTON M.F.,Exmouth Sub-basin,20230306
S0002583,Ewington 1,Ewington 1,Mine,Openpit,Operating,J01096,Collie / Lanco,116.219443999999996,-33.348725999999999,427371,6309780,50,Coal Shale,Energy,COAL,Ewington,N,,Y,,Operating Mine,Public,2131,COLLIE,SI50-06,COLLIE,"COLLIE, SHIRE OF","SOUTH WEST, Development Region",12,COLLIE RIVER M.F.,Collie Sub-basin,20230306
S0002613,Gascoyne River Sand M09/11,Gascoyne River Sand M09/11,Mine,Openpit,Operating,J03793,Gascoyne River Sand / Vandeleur,113.780748000000003,-24.821379000000000,781081,7251966,49,Sd Gvl,Construction material,CONSTRUCTION MATERIALS,,N,,,,,Public,1648,CARNARVON,SG49-04,QUOBBA,"CARNARVON, SHIRE OF","GASCOYNE, Development Region",9,GASCOYNE M.F.,Gascoyne Platform,20230306
S0002616,Moylan Rd Lot 2 and 235 / WA Lmst,Moylan Rd Wattleup Lot 2 and 235 / WA Limestone,Mine,Openpit,Operating,J01512,Wattleup / WA Limestone,115.800627000000006,-32.168964000000003,386917,6440205,50,Lst,Construction material,LIMESTONE - LIMESAND,,N,,,,,Public,2033,FREMANTLE,SI50-02,PINJARRA,"COCKBURN, CITY OF",METRO,70,SOUTH WEST M.F.,Mandurah Terrace,20230306
S0002660,Gascoyne Sand M09/27 M09/170,Gascoyne Sand M09/27 M09/170,Mine,Openpit,Operating,J03793,Gascoyne River Sand / Vandeleur,113.718605999999994,-24.832362000000000,774772,7250875,49,Sd,Construction material,CONSTRUCTION MATERIALS,,N,,,,,Public,1648,CARNARVON,SG49-04,QUOBBA,"CARNARVON, SHIRE OF","GASCOYNE, Development Region",9,GASCOYNE M.F.,Gascoyne Platform,20230306
S0002710,Northam-Toodyay Rd Lot 11 / Holcim,Northam - Toodyay Rd Lot 11 / Holcim,Mine,Openpit,Operating,J01229,Northam / Holcim,116.616698999999997,-31.644549999999999,463656,6498898,50,Agg,Construction material,CONSTRUCTION MATERIALS,,N,,,,,Public,2234,NORTHAM,SH50-14,PERTH,"NORTHAM, SHIRE OF","WHEATBELT, Development Region",70,SOUTH WEST M.F.,Yilgarn Craton granites,20230306
S0002711,Esperance/Holcim,Esperance / Holcim,Mine,Openpit,Operating,J01230,Esperance / Holcim,121.921676000000005,-33.770927999999998,400150,6262720,51,Agg Gran,Construction material,CONSTRUCTION MATERIALS,,N,,,,,Public,3230,ESPERANCE,SI51-06,ESPERANCE,"ESPERANCE, SHIRE OF","GOLDFIELDS-ESPERANCE, Development Region",63,DUNDAS M.F.,Nornalup Zone,20230306
S0002731,Cane River/Hanson,Cane River / Hanson,Mine,Openpit,Operating,J01240,Cane River / Hanson Construction,115.531485000000004,-21.947704000000002,348351,7572235,50,Sd Gvl,Construction material,CONSTRUCTION MATERIALS,,N,,,,,Public,2054,YARRALOOLA,SF50-06,YARRALOOLA,"ASHBURTON, SHIRE OF","PILBARA, Development Region",8,ASHBURTON M.F.,Peedamullah Shelf,20230306
S0002734,Lot 6 Lovers Lane Toodyay Quartzite,Lovers Lane Lot 6 Toodyay Quartzite,Mine,Openpit,Operating,J01241,Toodyay Quartzite,116.391402999999997,-31.594410000000000,442262,6504358,50,Qtze Dst,Construction material,DIMENSION STONE,,N,,,,,Public,2134,WOOROLOO,SH50-14,PERTH,"TOODYAY, SHIRE OF","WHEATBELT, Development Region",70,SOUTH WEST M.F.,South West Terrane,20230306
S0002809,Wonnerup/Tronox,Wonnerup / Tronox,Mine,Openpit,Operating,J00472,Wonnerup / Cristal,115.434848000000002,-33.650987000000001,354866,6275442,50,HM Ilm Zrn Mnz,Speciality metal,HEAVY MINERAL SANDS,,Y,"HM, Ilm, Zrn, Mnz",Y,,Operating Mine,Public,1930,BUSSELTON,SI50-05,BUSSELTON,"BUSSELTON, CITY OF","SOUTH WEST, Development Region",70,SOUTH WEST M.F.,Bunbury Trough,20230306
S0002815,Daisy-Milano,Daisy - Milano,Mine,Decline,Operating,J00251,Randalls - Mt Monger,121.921362000000002,-31.013137000000000,397038,6568443,51,Au Ag,Precious metal,GOLD,Daisy-Milano,N,,Y,,Operating Mine,Public,3235,LAKE LEFROY,SH51-14,WIDGIEMOOLTHA,"KALGOORLIE-BOULDER, CITY OF","GOLDFIELDS-ESPERANCE, Development Region",26,EAST COOLGARDIE,Eastern Goldfields Superterrane,20230306
S0002855,Mulgarrie,Mulgarrie,Mine,Openpit,Operating,J00292,Paddington - Mt Pleasant,121.515146999999999,-30.383512000000000,357335,6637782,51,Au Ag,Precious metal,GOLD,Mulgarrie,N,,Y,,Operating Mine,Public,3237,GINDALBIE,SH51-10,KURNALPI,"KALGOORLIE-BOULDER, CITY OF","GOLDFIELDS-ESPERANCE, Development Region",27,KANOWNA,Eastern Goldfields Superterrane,20230306
S0002882,Penny West,Penny West,Mine,Openpit,Under Development,J05525,Penny Gold,118.810428000000002,-28.853895999999999,676599,6806855,50,Au Ag,Precious metal,GOLD,,N,,,,,Public,2640,YOUANMI,SH50-04,YOUANMI,"SANDSTONE, SHIRE OF","MID-WEST, Development Region",57,BLACK RANGE,Youanmi Terrane,20230306
S0002883,Langey Crossing Sand,Langey Crossing / McCorry Brown,Mine,Openpit,Operating,J01280,Langey Crossing / McCorry Brown,123.567667000000000,-17.658085000000000,560210,8047552,51,Sd Gvl,Construction material,CONSTRUCTION MATERIALS,,N,,,,,Public,3662,YEEDA,SE51-07,DERBY,"DERBY/WEST KIMBERLEY, SHIRE OF","KIMBERLEY, Development Region",4,WEST KIMBERLEY M.F.,Fitzroy Trough,20230306
S0002912,P3,Packsaddle Range P3,Mine,Openpit,Operating,J00576,Mining Area C,118.960527999999996,-22.905626000000002,701085,7465588,50,Fe,Iron,IRON ORE,,N,,,,,Public,2652,MUNJINA,SF50-12,ROY HILL,"EAST PILBARA, SHIRE OF","PILBARA, Development Region",47,WEST PILBARA M.F.,Hamersley Basin,20230306
S0002952,94E,Paraburdoo 94 East,Mine,Openpit,Operating,J00481,Channar,117.848297000000002,-23.305980999999999,586739,7422353,50,Fe,Iron,IRON ORE,,N,,,,,Public,2451,PARABURDOO,SF50-15,TUREE CREEK,"ASHBURTON, SHIRE OF","PILBARA, Development Region",47,WEST PILBARA M.F.,Hamersley Basin,20230306
S0002957,11W,Paraburdoo 11 West,Mine,Openpit,Operating,J03930,Paraburdoo / Rio Tinto,117.561301999999998,-23.225909999999999,557427,7431360,50,Fe,Iron,IRON ORE,,N,,,,,Public,2451,PARABURDOO,SF50-15,TUREE CREEK,"ASHBURTON, SHIRE OF","PILBARA, Development Region",47,WEST PILBARA M.F.,Hamersley Basin,20230306
S0002960,Gudai-Darri K58,Gudai-Darri K58,Mine,Openpit,Operating,J00557,Gudai-Darri,119.038122999999999,-22.533760000000001,709611,7506662,50,Fe,Iron,IRON ORE,Gudai-Darri,N,,Y,,Operating Mine,Public,2752,WEELI WOLLI,SF50-12,ROY HILL,"EAST PILBARA, SHIRE OF","PILBARA, Development Region",47,WEST PILBARA M.F.,Hamersley Basin,20230306
S0002964,B1 Main,Turner Syncline B1 Main,Mine,Openpit,Operating,J00609,Turner Syncline West,117.462897999999996,-22.679331000000001,547550,7491903,50,Fe,Iron,IRON ORE,B1,N,,Y,,Operating Mine,Public,2352,ROCKLEA,SF50-11,MOUNT BRUCE,"ASHBURTON, SHIRE OF","PILBARA, Development Region",47,WEST PILBARA M.F.,Hamersley Basin,20230306
S0002984,Billiard,Billiard - Billiard South,Mine,Openpit,Under Development,J00732,Yandicoogina / HI-Yandi,119.299567999999994,-22.809574999999999,736037,7475723,50,Fe,Iron,IRON ORE,,N,,,,,Public,2752,WEELI WOLLI,SF50-12,ROY HILL,"EAST PILBARA, SHIRE OF","PILBARA, Development Region",47,WEST PILBARA M.F.,Hamersley Basin,20230306
S0002995,Wheelarra 2,Wheelarra 2,Mine,Openpit,Operating,J00573,Jimblebar-Wheelarra-Hashimoto / BHPB,120.086534000000000,-23.371527000000000,202158,7412346,51,Fe,Iron,IRON ORE,,N,,,,,Public,2951,MURRAMUNDA,SF51-13,ROBERTSON,"EAST PILBARA, SHIRE OF","PILBARA, Development Region",52,PEAK HILL M.F.,Hamersley Basin,20230306
S0002996,SJ-C1a-b,South Jimblebar - Central 1a-b,Mine,Openpit,Operating,J00573,Jimblebar-Wheelarra-Hashimoto / BHPB,120.118294000000006,-23.395720000000001,205461,7409730,51,Fe,Iron,IRON ORE,Jimblebar,N,,Y,,Operating Mine,Public,2951,MURRAMUNDA,SF51-13,ROBERTSON,"EAST PILBARA, SHIRE OF","PILBARA, Development Region",52,PEAK HILL M.F.,Hamersley Basin,20230306
S0002997,Wheelarra 3 Scree,Wheelarra 3 Scree,Mine,Openpit,Operating,J00573,Jimblebar-Wheelarra-Hashimoto / BHPB,120.116095999999999,-23.380618999999999,205202,7411398,51,Fe,Iron,IRON ORE,,N,,,,,Public,2951,MURRAMUNDA,SF51-13,ROBERTSON,"EAST PILBARA, SHIRE OF","PILBARA, Development Region",52,PEAK HILL M.F.,Hamersley Basin,20230306
S0002998,Wheelarra 1,Wheelarra 1,Mine,Openpit,Operating,J00573,Jimblebar-Wheelarra-Hashimoto / BHPB,120.083105000000003,-23.378768999999998,201824,7411536,51,Fe,Iron,IRON ORE,,N,,,,,Public,2951,MURRAMUNDA,SF51-13,ROBERTSON,"EAST PILBARA, SHIRE OF","PILBARA, Development Region",52,PEAK HILL M.F.,Hamersley Basin,20230306
S0003023,Marillana Ck E2,Marillana Creek Eastern Mesa 2,Mine,Openpit,Operating,J00571,Marillana Creek - Yandi / BHPB,119.113602000000000,-22.741440000000001,717050,7483554,50,Fe,Iron,IRON ORE,,N,,,,,Public,2752,WEELI WOLLI,SF50-12,ROY HILL,"EAST PILBARA, SHIRE OF","PILBARA, Development Region",47,WEST PILBARA M.F.,Hamersley Basin,20230306
S0003024,OB 24 Far W,Mt Newman Orebody 24 Far West,Mine,Openpit,Operating,J00623,Newman / BHPB,119.758003000000002,-23.292249999999999,782107,7421441,50,Fe,Iron,IRON ORE,,N,,,,,Public,2851,NEWMAN,SF50-16,NEWMAN,"EAST PILBARA, SHIRE OF","PILBARA, Development Region",47,WEST PILBARA M.F.,Hamersley Basin,20230306
S0003025,OB 24 W,Mt Newman Orebody 24 West,Mine,Openpit,Operating,J00623,Newman / BHPB,119.773598000000007,-23.295300000000001,783697,7421072,50,Fe,Iron,IRON ORE,,N,,,,,Public,2851,NEWMAN,SF50-16,NEWMAN,"EAST PILBARA, SHIRE OF","PILBARA, Development Region",47,WEST PILBARA M.F.,Hamersley Basin,20230306
S0003026,OB 24 Int,Mt Newman Orebody 24 Intermediate,Mine,Openpit,Operating,J00623,Newman / BHPB,119.792396999999994,-23.300051000000000,785610,7420509,50,Fe,Iron,IRON ORE,,N,,,,,Public,2851,NEWMAN,SF50-16,NEWMAN,"EAST PILBARA, SHIRE OF","PILBARA, Development Region",47,WEST PILBARA M.F.,Hamersley Basin,20230306
S0003027,OB 24 Far E,Mt Newman Orebody 24 Far East,Mine,Openpit,Operating,J00623,Newman / BHPB,119.825798000000006,-23.305309000000001,789017,7419860,50,Fe,Iron,IRON ORE,,N,,,,,Public,2851,NEWMAN,SF50-16,NEWMAN,"EAST PILBARA, SHIRE OF","PILBARA, Development Region",47,WEST PILBARA M.F.,Hamersley Basin,20230306
S0003053,Cliff Head Gypsum,Cliff Head Gypsum,Mine,Openpit,Operating,J01298,Cliff Head Gypsum,114.995575000000002,-29.527415000000001,305748,6731904,50,Gp,Industrial mineral,GYPSUM,Cliff Head,Y,Gp,Y,,Operating Mine,Public,1838,BEAGLE ISLANDS,SH50-05,DONGARA,"IRWIN, SHIRE OF","MID-WEST, Development Region",70,SOUTH WEST M.F.,Beagle Ridge,20230306
S0003056,Hampton UG,Hampton - Boulder Underground,Mine,Decline,Operating,J00276,South Kalgoorlie Operations,121.606576000000004,-31.034576000000001,367017,6565732,51,Au Ag,Precious metal,GOLD,HBJ,N,,Y,,Operating Mine,Public,3235,LAKE LEFROY,SH51-14,WIDGIEMOOLTHA,"KALGOORLIE-BOULDER, CITY OF","GOLDFIELDS-ESPERANCE, Development Region",26,EAST COOLGARDIE,Eastern Goldfields Superterrane,20230306
S0003063,Mt Malcolm,Mt Malcolm - Verde Austral,Mine,Openpit,Operating,J00900,Fraser Range Granite-Dolerite,122.840192000000002,-32.217222000000000,484941,6435475,51,Gran BlackGran Dst,Construction material,DIMENSION STONE,,N,,,,,Public,3433,FRASER RANGE,SI51-02,NORSEMAN,"DUNDAS, SHIRE OF","GOLDFIELDS-ESPERANCE, Development Region",63,DUNDAS M.F.,Fraser Zone,20230306
S0003098,Dolly Pot,Dolly Pot,Mine,Openpit,Operating,J02854,Marda / Southern Cross,119.258697999999995,-30.197590000000002,717441,6657163,50,Au Ag,Precious metal,GOLD,,N,,Y,,Operating Mine,Public,2737,JACKSON,SH50-12,JACKSON,"YILGARN, SHIRE OF","WHEATBELT, Development Region",77,YILGARN M.F.,Youanmi Terrane,20230306
S0003101,Kanowna Belle,Kanowna Belle,Mine,Decline,Operating,J00181,Kanowna - Golden Valley,121.578006999999999,-30.608995000000000,363690,6612868,51,Au Ag,Precious metal,GOLD,Kanowna Belle,N,,Y,,Operating Mine,Public,3236,KANOWNA,SH51-10,KURNALPI,"KALGOORLIE-BOULDER, CITY OF","GOLDFIELDS-ESPERANCE, Development Region",27,KANOWNA,Eastern Goldfields Superterrane,20230306
S0003133,Jurien Bay 1/Westdeen,Jurien Bay 1 / Westdeen,Mine,Openpit,Operating,J02411,Jurien Bay / Westdeen,115.048311999999996,-30.246530000000000,312213,6652285,50,Aglime Lsd Lst,Industrial mineral,LIMESTONE - LIMESAND,,N,,,,,Public,1937,HILL RIVER,SH50-09,HILL RIVER,"DANDARAGAN, SHIRE OF","WHEATBELT, Development Region",70,SOUTH WEST M.F.,Beagle Ridge,20230306
S0003173,Bullen - Mainfield,Bullen,Mine,Decline,Operating,J00056,Central Norseman,121.798698000000002,-32.197947999999997,386771,6436990,51,Au Ag,Precious metal,GOLD,Bullen,N,,Y,,Operating Mine,Public,3233,NORSEMAN,SI51-02,NORSEMAN,"DUNDAS, SHIRE OF","GOLDFIELDS-ESPERANCE, Development Region",63,DUNDAS M.F.,Eastern Goldfields Superterrane,20230306
S0003211,Kununurra SE/Argyle,Kununurra SE / Argyle,Mine,Openpit,Operating,J01354,Kununurra SE,128.849898999999994,-15.833470000000000,483927,8249479,52,Gvl Sd,Construction material,CONSTRUCTION MATERIALS,,N,,,,,Public,4666,KUNUNURRA,SD52-14,CAMBRIDGE GULF,"WYNDHAM-EAST KIMBERLEY, SHIRE OF","KIMBERLEY, Development Region",80,KIMBERLEY M.F.,Burt Range Shelf,20230306
S0003235,5 West,Paraburdoo 5 West,Mine,Openpit,Operating,J03930,Paraburdoo / Rio Tinto,117.576027999999994,-23.218031000000000,558938,7432227,50,Fe,Iron,IRON ORE,,N,,,,,Public,2451,PARABURDOO,SF50-15,TUREE CREEK,"ASHBURTON, SHIRE OF","PILBARA, Development Region",47,WEST PILBARA M.F.,Hamersley Basin,20230306
S0003246,Genesis UG,Genesis Underground,Mine,Decline,Operating,J00098,Agnew - Emu,120.497001999999995,-27.978439000000002,253806,6902662,51,Au Ag,Precious metal,GOLD,,N,,,,,Public,2942,DEPOT SPRINGS,SG51-13,SIR SAMUEL,"LEONORA, SHIRE OF","GOLDFIELDS-ESPERANCE, Development Region",36,LAWLERS,Yilgarn Craton,20230306
S0003253,Triton North UG,Triton North Underground,Mine,Unspecified,Operating,J00017,Cue Gold - Central Murchison,118.268303000000003,-27.131820999999999,625694,6998330,50,Au Ag,Precious metal,GOLD,,N,,,,,Public,2543,REEDY,SG50-15,CUE,"CUE, SHIRE OF","MID-WEST, Development Region",20,CUE,Youanmi Terrane,20230306
S0003254,South Emu UG,South Emu - Triton Underground,Mine,Adit,Operating,J00017,Cue Gold - Central Murchison,118.266898999999995,-27.137969999999999,625548,6997650,50,Au Ag,Precious metal,GOLD,South Emu,N,,Y,,Operating Mine,Public,2543,REEDY,SG50-15,CUE,"CUE, SHIRE OF","MID-WEST, Development Region",20,CUE,Youanmi Terrane,20230306
S0003258,Triton UG,Triton Underground,Mine,Decline,Operating,J00017,Cue Gold - Central Murchison,118.267700000000005,-27.133360000000000,625632,6998160,50,Au Ag,Precious metal,GOLD,,N,,,,,Public,2543,REEDY,SG50-15,CUE,"CUE, SHIRE OF","MID-WEST, Development Region",20,CUE,Youanmi Terrane,20230306
S0003278,Mungada E,Mungada East - Blue Hills,Mine,Openpit,Operating,J02673,Koolanooka & Blue Hills - Mungada / Sinosteel,116.883313999999999,-29.142147000000001,488650,6776260,50,Fe,Iron,IRON ORE,,N,,,,,Public,2239,ROTHSAY,SH50-06,PERENJORI,"PERENJORI, SHIRE OF","MID-WEST, Development Region",59,YALGOO M.F.,Youanmi Terrane,20230306
S0003291,Warramboo,Warramboo - Mesa A,Mine,Openpit,Operating,J00484,Robe River - Deepdale,115.830596999999997,-21.663160000000001,379004,7603999,50,Fe,Iron,IRON ORE,,N,,,,,Public,2054,YARRALOOLA,SF50-06,YARRALOOLA,"ASHBURTON, SHIRE OF","PILBARA, Development Region",8,ASHBURTON M.F.,Lambert Shelf,20230306
S0003324,Marillana Ck Central 5,Marillana Creek Central Mesa 5,Mine,Openpit,Operating,J00571,Marillana Creek - Yandi / BHPB,119.100600999999997,-22.724819000000000,715740,7485413,50,Fe,Iron,IRON ORE,Marillana Creek,N,,Y,,Operating Mine,Public,2752,WEELI WOLLI,SF50-12,ROY HILL,"EAST PILBARA, SHIRE OF","PILBARA, Development Region",47,WEST PILBARA M.F.,Hamersley Basin,20230306
S0003337,Cracker,Cracker,Mine,Openpit,Operating,J00725,Woodie Woodie (Mining Corridor) / ConsMin,121.221107000000003,-21.610240000000001,315862,7609260,51,Mn,Steel alloy metal,MANGANESE ORE,Cracker,Y,Mn,Y,,Operating Mine,Public,3154,PEARANA,SF51-05,NULLAGINE,"EAST PILBARA, SHIRE OF","PILBARA, Development Region",45,MARBLE BAR,Hamersley Basin,20230306
S0003352,Turner River Quarry / Holcim,Turner River Quarry / Holcim,Mine,Openpit,Operating,J00863,Turner River Aggregate / Holcim,118.521949000000006,-20.642961000000000,658562,7716623,50,Agg Sdc Sd,Construction material,CONSTRUCTION MATERIALS,,N,,,,,Public,2656,WALLARINGA,SF50-04,PORT HEDLAND,"PORT HEDLAND, TOWN OF","PILBARA, Development Region",45,MARBLE BAR,Soanesville Basin,20230306
S0003389,Cockleshell Gully Road,Cockleshell Gully Road / Green Head,Mine,Openpit,Operating,J01388,Coorow / Green Head Sands,115.125471000000005,-30.072313999999999,319321,6671720,50,Sd Gvl,Construction material,CONSTRUCTION MATERIALS,,N,,,,,Public,1937,HILL RIVER,SH50-09,HILL RIVER,"COOROW, SHIRE OF","MID-WEST, Development Region",70,SOUTH WEST M.F.,Cadda Terrace,20230306
S0003390,Port Hedland/Brookdale-Buckski,Port Hedland / Brookdale-Buckski,Mine,Openpit,Operating,J01389,Port Hedland / Brookdale-Buckski,118.719768999999999,-20.411459000000001,679445,7742046,50,Sd Gvl,Construction material,CONSTRUCTION MATERIALS,,N,,,,,Public,2657,PORT HEDLAND,SF50-04,PORT HEDLAND,"PORT HEDLAND, TOWN OF","PILBARA, Development Region",45,MARBLE BAR,Split Rock Supersuite,20230306
S0003391,Norton,Norton - Nevoria,Mine,Openpit,Operating,J00226,Marvel Loch - Southern Cross,119.592796000000007,-31.508730000000000,746238,6511102,50,Au Ag,Precious metal,GOLD,Norton,N,,Y,,Operating Mine,Public,2834,CHERITONS FIND,SH50-16,SOUTHERN CROSS,"YILGARN, SHIRE OF","WHEATBELT, Development Region",77,YILGARN M.F.,Youanmi Terrane,20230306
S0003406,Upper Swan/Midland Brick,Great Northern Hwy Upper Swan / Midland Brick,Mine,Openpit,Operating,J01802,Upper Swan - Red Hill / Midland Brick,116.032712000000004,-31.775998000000001,408411,6483985,50,Cyfi,Construction material,CLAYS,,N,,,,,Public,2134,WOOROLOO,SH50-14,PERTH,"SWAN, CITY OF",METRO,70,SOUTH WEST M.F.,Mandurah Terrace,20230306
S0003421,Gascoyne River Sand M09/69,Gascoyne River Sand M09/69,Mine,Openpit,Operating,J03793,Gascoyne River Sand / Vandeleur,113.889343999999994,-24.797889000000001,792119,7254340,49,Sd,Construction material,CONSTRUCTION MATERIALS,,N,,,,,Public,1648,CARNARVON,SG49-04,QUOBBA,"CARNARVON, SHIRE OF","GASCOYNE, Development Region",9,GASCOYNE M.F.,Gascoyne Platform,20230306
S0003471,Learmonth/Hanson,Learmonth / Hanson,Mine,Openpit,Operating,J01413,Learmonth / Hanson Construction,114.052126999999999,-22.253831999999999,196166,7536115,50,Lst Agg Sd,Construction material,LIMESTONE - LIMESAND,,N,,,,,Public,1753,LEARMONTH,SF50-09,YANREY,"EXMOUTH, SHIRE OF","GASCOYNE, Development Region",8,ASHBURTON M.F.,Exmouth Sub-basin,20230306
S0003472,Gnarlbine Sand 1,Gnarlbine Plaster Sand 1,Mine,Openpit,Operating,J00844,Comet Hill-Gnarlabine / Boral,120.931741000000002,-31.136315000000000,302813,6553450,51,Sd,Construction material,CONSTRUCTION MATERIALS,,N,,,,,Public,3035,WOOLGANGIE,SH51-13,BOORABBIN,"COOLGARDIE, SHIRE OF","GOLDFIELDS-ESPERANCE, Development Region",15,COOLGARDIE,Yilgarn Craton granites,20230306
S0003598,Lake MacLeod,Lake MacLeod Gypsum,Mine,Openpit,Operating,J01474,Lake MacLeod Gypsum,113.562708000000001,-24.234375000000000,760239,7317434,49,Gp,Industrial mineral,GYPSUM,Lake MacLeod,Y,Gp,Y,,Operating Mine,Public,1649,MACLEOD,SG49-04,QUOBBA,"CARNARVON, SHIRE OF","GASCOYNE, Development Region",9,GASCOYNE M.F.,Gascoyne Platform,20230306
S0003638,Marradong,Marradong,Mine,Openpit,Operating,J00776,Worsley,116.434898000000004,-32.836768999999997,447113,6366667,50,Bx,Alumina,BAUXITE - ALUMINA,,N,,Y,,Operating Mine,Public,2132,DWELLINGUP,SI50-02,PINJARRA,"BODDINGTON, SHIRE OF","PEEL, Development Region",70,SOUTH WEST M.F.,South West Terrane,20230306
S0003676,Marshall Pool Chrysoprase,Marshall Pool Chrysoprase,Mine,Openpit,Operating,J01492,Marshall Pool Chrysoprase,120.983447999999996,-28.319483000000002,302293,6865755,51,Chrp MgsNi OrnStone,Precious mineral,GEM & SEMI-PRECIOUS STONES,,N,,,,,Public,3041,WILDARA,SH51-01,LEONORA,"LEONORA, SHIRE OF","GOLDFIELDS-ESPERANCE, Development Region",37,MT. MALCOLM,Eastern Goldfields Superterrane,20230306
S0003678,Fitzroy Crossing/Reen,Fitzroy Crossing / Voyd,Mine,Openpit,Operating,J01493,Fitzroy Crossing / Voyd,125.586703999999997,-18.189632000000000,773616,7986905,51,Sd,Construction material,CONSTRUCTION MATERIALS,,N,,,,,Public,4061,FITZROY CROSSING,SE51-12,NOONKANBAH,"DERBY/WEST KIMBERLEY, SHIRE OF","KIMBERLEY, Development Region",4,WEST KIMBERLEY M.F.,Lennard Shelf,20230306
S0003684,Flynn Drive/WA Lst,Flynn Drive Neerabup / WA Limestone,Mine,Openpit,Operating,J01494,Flynn Drive Neerabup / WA Limestone,115.778683999999998,-31.674876999999999,384231,6494953,50,Lst Lsd Agg,Construction material,LIMESTONE - LIMESAND,,N,,,,,Public,2034,PERTH,SH50-14,PERTH,"WANNEROO, CITY OF",METRO,70,SOUTH WEST M.F.,Mandurah Terrace,20230306
S0003696,Mousehollow,Mousehollow,Mine,Openpit,Under Development,J00152,Higginsville,121.819011000000003,-31.784390999999999,388185,6482855,51,Au Ag,Precious metal,GOLD,,N,,,,,Public,3234,COWAN,SH51-14,WIDGIEMOOLTHA,"COOLGARDIE, SHIRE OF","GOLDFIELDS-ESPERANCE, Development Region",15,COOLGARDIE,Eastern Goldfields Superterrane,20230306
S0003719,Deposit B,West Angelas Deposit B,Mine,Openpit,Operating,J00706,West Angelas,118.767574999999994,-23.118524000000001,681005,7442263,50,Fe,Iron,IRON ORE,,N,,,,,Public,2651,GOVERNOR,SF50-16,NEWMAN,"EAST PILBARA, SHIRE OF","PILBARA, Development Region",47,WEST PILBARA M.F.,Hamersley Basin,20230306
S0003722,Deposit E,West Angelas Deposit E,Mine,Openpit,Operating,J00706,West Angelas,118.789979000000002,-23.198053000000002,683192,7433428,50,Fe,Iron,IRON ORE,,N,,,,,Public,2651,GOVERNOR,SF50-16,NEWMAN,"EAST PILBARA, SHIRE OF","PILBARA, Development Region",47,WEST PILBARA M.F.,Hamersley Basin,20230306
S0003738,Hill 60 UG,Hill 60 Underground,Mine,Decline,Operating,J00156,Mt Magnet,117.833877000000001,-28.073274000000001,581935,6894400,50,Au Ag,Precious metal,GOLD,Hill 60,N,,Y,,Operating Mine,Public,2441,MOUNT MAGNET,SH50-03,KIRKALOCKA,"MOUNT MAGNET, SHIRE OF","MID-WEST, Development Region",58,MT. MAGNET,Youanmi Terrane,20230306
S0003746,Wattleup Rd Lots 25-31 / Italia,Wattleup Rd Los 25-31 Wattleup / Italia,Mine,Openpit,Operating,J02658,Wattleup / Italia,115.809409000000002,-32.179931000000003,387759,6438998,50,Lst Dst,Construction material,LIMESTONE - LIMESAND,,N,,,,,Public,2033,FREMANTLE,SI50-02,PINJARRA,"COCKBURN, CITY OF",METRO,70,SOUTH WEST M.F.,Mandurah Terrace,20230306
S0003756,Golden Pike,Golden Pike,Mine,Openpit,Operating,J00102,Golden Mile / KCGM,121.502065999999999,-30.776551999999999,356657,6594202,51,Au Ag,Precious metal,GOLD,,N,,,,,Public,3236,KANOWNA,SH51-10,KURNALPI,"KALGOORLIE-BOULDER, CITY OF","GOLDFIELDS-ESPERANCE, Development Region",26,EAST COOLGARDIE,Eastern Goldfields Superterrane,20230306
S0003779,Happy Jack-Tirau,Happy Jack - Tirau Underground,Mine,Decline,Operating,J02624,Matilda,120.239402999999996,-26.619221000000000,225126,7052770,51,Au Ag,Precious metal,GOLD,,N,,,,,Public,2944,WILUNA,SG51-09,WILUNA,"WILUNA, SHIRE OF","MID-WEST, Development Region",53,WILUNA,Eastern Goldfields Superterrane,20230306
S0003783,Bardies Well 1,Bardies Well 1,Mine,Openpit,Operating,J01514,Bardies Well Aggregate,116.910415000000000,-20.832080000000001,490679,7696433,50,Agg Chert Bas,Construction material,CONSTRUCTION MATERIALS,,N,,,,,Public,2256,DAMPIER,SF50-02,DAMPIER,"KARRATHA, CITY OF","PILBARA, Development Region",47,WEST PILBARA M.F.,Regal Terrane,20230306
S0003806,Scotia S,Scotia South,Mine,Openpit,Operating,J00056,Central Norseman,121.791702000000001,-32.476180999999997,386459,6406138,51,Au,Precious metal,GOLD,,N,,,,,Public,3233,NORSEMAN,SI51-02,NORSEMAN,"DUNDAS, SHIRE OF","GOLDFIELDS-ESPERANCE, Development Region",63,DUNDAS M.F.,"Northern Foreland, Albany-Fraser Orogen",20230306
S0003807,Scotia N,Scotia North,Mine,Openpit,Operating,J00056,Central Norseman,121.792603000000000,-32.470928000000001,386538,6406721,51,Au Ag,Precious metal,GOLD,,N,,,,,Public,3233,NORSEMAN,SI51-02,NORSEMAN,"DUNDAS, SHIRE OF","GOLDFIELDS-ESPERANCE, Development Region",63,DUNDAS M.F.,"Northern Foreland, Albany-Fraser Orogen",20230306
S0003820,Tank,Tank,Mine,Openpit,Operating,J00184,Aldiss - Karonie,122.559442000000004,-31.071024999999999,457972,6562443,51,Au Ag,Precious metal,GOLD,,N,,,,,Public,3435,ERAYINIA,SH51-14,WIDGIEMOOLTHA,"KALGOORLIE-BOULDER, CITY OF","GOLDFIELDS-ESPERANCE, Development Region",28,KURNALPI,Eastern Goldfields Superterrane,20230306
S0003851,Rumbles,Rumbles Open Pit,Mine,Openpit,Operating,J00251,Randalls - Mt Monger,122.188266999999996,-31.068289000000000,422561,6562547,51,Au Ag,Precious metal,GOLD,Rumbles,N,,Y,,Operating Mine,Public,3335,MOUNT BELCHES,SH51-14,WIDGIEMOOLTHA,"KALGOORLIE-BOULDER, CITY OF","GOLDFIELDS-ESPERANCE, Development Region",25,BULONG,Eastern Goldfields Superterrane,20230306
S0003866,Pippingarra / Young,Pippingarra Sand / Young,Mine,Openpit,Operating,J01534,Port Hedland Sand and Gravel / Young,118.626480999999998,-20.431259000000001,669688,7739953,50,Sd,Construction material,CONSTRUCTION MATERIALS,,N,,,,,Public,2657,PORT HEDLAND,SF50-04,PORT HEDLAND,"PORT HEDLAND, TOWN OF","PILBARA, Development Region",45,MARBLE BAR,Split Rock Supersuite,20230306
S0003882,Nillibubbaca A,Nillibubbaca-Yeeda (Part A - Resources Safety),Mine,Openpit,Operating,J01542,Nillibubbaca - Yeeda / Kimberley Quarry,123.078745999999995,-17.713660000000001,508350,8041492,51,Agg,Construction material,CONSTRUCTION MATERIALS,,N,,,,,Public,3562,CLARKSON,SE51-07,DERBY,"DERBY/WEST KIMBERLEY, SHIRE OF","KIMBERLEY, Development Region",4,WEST KIMBERLEY M.F.,Fitzroy Trough,20230306
S0003892,Nickol Bay/Holcim,Nickol Bay / Holcim,Mine,Openpit,Operating,J00959,Nickol Bay / Holcim,116.739554999999996,-20.672609999999999,472874,7714063,50,Agg Aggc Aggm Gran Sd,Construction material,CONSTRUCTION MATERIALS,,N,,,,,Public,2256,DAMPIER,SF50-02,DAMPIER,"KARRATHA, CITY OF","PILBARA, Development Region",47,WEST PILBARA M.F.,Maitland River Supersuite,20230306
S0003903,Nickol Bay Main East/Karratha Earthmoving,Nickol Bay Main East / Karratha Earthmoving,Mine,Openpit,Operating,J01549,Nickol Bay / Karratha Earthmoving,116.906801999999999,-20.733017000000000,490297,7707397,50,Sd,Construction material,CONSTRUCTION MATERIALS,,N,,,,,Public,2256,DAMPIER,SF50-02,DAMPIER,"KARRATHA, CITY OF","PILBARA, Development Region",47,WEST PILBARA M.F.,Gorge Creek Basin,20230306
S0003919,Great Western,Great Western / Red 5,Mine,Openpit,Operating,J05237,Great Western,121.180492000000001,-28.317053999999999,321611,6866331,51,Au Ag,Precious metal,GOLD,Great Western,N,,Y,,Operating Mine,Public,3141,WEEBO,SH51-01,LEONORA,"LEONORA, SHIRE OF","GOLDFIELDS-ESPERANCE, Development Region",37,MT. MALCOLM,Yilgarn Craton granites,20230306
S0003942,Westralia UG,Westralia Deeps - Mt Morgans Underground,Mine,Decline,Operating,J00256,Mt Morgans,122.067899999999995,-28.769621999999998,409011,6817182,51,Au Ag,Precious metal,GOLD,,N,,,,,Public,3340,LAVERTON,SH51-02,LAVERTON,"LAVERTON, SHIRE OF","GOLDFIELDS-ESPERANCE, Development Region",39,MT. MORGANS,Eastern Goldfields Superterrane,20230306
S0003946,Gordon-Sirdar,Gordon-Sirdar Openpit,Mine,Openpit,Operating,J01307,Gordon - Sirdar,121.594498000000002,-30.450350000000000,365052,6630472,51,Au Ag,Precious metal,GOLD,Sirdar,N,,Y,,Operating Mine,Public,3237,GINDALBIE,SH51-10,KURNALPI,"KALGOORLIE-BOULDER, CITY OF","GOLDFIELDS-ESPERANCE, Development Region",27,KANOWNA,Eastern Goldfields Superterrane,20230306
S0003983,Mt Regal/Boral,Mt Regal / Boral,Mine,Openpit,Operating,J01849,Mt Regal / Boral,116.727320000000006,-20.824594999999999,471628,7697241,50,Agg Aggc Brck Sd Bas,Construction material,CONSTRUCTION MATERIALS,,N,,,,,Public,2256,DAMPIER,SF50-02,DAMPIER,"KARRATHA, CITY OF","PILBARA, Development Region",47,WEST PILBARA M.F.,Regal Terrane,20230306
S0003986,Boodalin - Pertha M,Boodalin - Pertha M,Mine,Openpit,Operating,J01576,Boodalin Soak - Westonia,118.649851999999996,-31.271857000000001,657066,6539095,50,Cydo Dol MgCO3 Clay,Industrial mineral,CLAYS,Boodalin Soak,Y,"Cydo, Dol, MgCO3, Clay",Y,,Operating Mine,Public,2635,WESTONIA,SH50-16,SOUTHERN CROSS,"WESTONIA, SHIRE OF","WHEATBELT, Development Region",77,YILGARN M.F.,South West Terrane,20230306
S0004026,Kemerton Silica Sand,Kemerton Silica Sand,Mine,Openpit,Operating,J01591,Kemerton Silica Sand,115.788532000000004,-33.131269000000003,386994,6333507,50,Sisd,Industrial mineral,SILICA - SILICA SAND,Kemerton,Y,Sisd,Y,,Operating Mine,Public,2031,BUNBURY,SI50-06,COLLIE,"HARVEY, SHIRE OF","SOUTH WEST, Development Region",70,SOUTH WEST M.F.,Mandurah Terrace,20230306
S0004061,Abercrombie Rd 1/WA Lmst,Postans - Abercrombie Rd 1 / WA Limestone,Mine,Openpit,Operating,J01602,Postans - Abercrombie Rd / WA Limestone,115.803298999999996,-32.215099000000002,387226,6435094,50,Lst Agg Lst-Lsd,Construction material,LIMESTONE - LIMESAND,,N,,,,,Public,2033,FREMANTLE,SI50-02,PINJARRA,"KWINANA, CITY OF",METRO,70,SOUTH WEST M.F.,Mandurah Terrace,20230306
S0004135,Watheroo Lake A,Watheroo Clays Lake A,Mine,Openpit,Operating,J00985,Watheroo Clays,115.978673999999998,-30.124493000000001,401616,6666980,50,Spn Bent,Industrial mineral,CLAYS,Watheroo Lake,Y,"Spn, Bent",Y,,Operating Mine,Public,2037,BADGINGARRA,SH50-10,MOORA,"COOROW, SHIRE OF","MID-WEST, Development Region",70,SOUTH WEST M.F.,Moora Basin,20230306
S0004141,Deflector,Deflector Central,Mine,Openpit,Operating,J00147,Deflector,116.379425999999995,-28.669105999999999,439364,6828516,50,Au Cu Ag,Precious metal,GOLD,,N,,Y,,Operating Mine,Public,2140,MELLENBYE,SH50-02,YALGOO,"YALGOO, SHIRE OF","MID-WEST, Development Region",59,YALGOO M.F.,Youanmi Terrane,20230306
S0004154,Kirkalocka,Curara Well - Kirkalocka,Mine,Openpit,Operating,J01617,Kirkalocka,117.761538000000002,-28.674935000000001,574406,6827791,50,Au Ag,Precious metal,GOLD,Kirkalocka,N,,Y,,Operating Mine,Public,2440,KIRKALOCKA,SH50-03,KIRKALOCKA,"MOUNT MAGNET, SHIRE OF","MID-WEST, Development Region",59,YALGOO M.F.,Youanmi Terrane,20230306
S0004221,Paddys Flat UG,Paddys Flat Underground,Mine,Decline,Operating,J00017,Cue Gold - Central Murchison,118.508598000000006,-26.605350000000001,650205,7056389,50,Au Ag,Precious metal,GOLD,Paddys Flat,N,,Y,,Operating Mine,Public,2644,GABANINTHA,SG50-12,GLENGARRY,"MEEKATHARRA, SHIRE OF","MID-WEST, Development Region",51,MEEKATHARRA,Youanmi Terrane,20230306
S0004238,Menari,Menari,Mine,Openpit,Operating,J01644,Lucky Bay Garnet,114.183054999999996,-28.029380000000000,223043,6896342,50,Grt HM Leu Ilm Zrn Rt,Industrial mineral,HEAVY MINERAL SANDS,,N,,,,,Public,1741,HUTT,SH50-01,GERALDTON,"NORTHAMPTON, SHIRE OF","MID-WEST, Development Region",70,SOUTH WEST M.F.,Gascoyne Platform,20230306
S0004242,L'Haridon Bight North,L'Haridon Bight North,Mine,Openpit,Operating,J01645,L'Haridon Bight,113.850247999999993,-26.115361000000000,785040,7108418,49,Lsd Shell Lst Lst-Lsd,Construction material,LIMESTONE - LIMESAND,,N,,,,,Public,1645,PERON,SG49-12,EDEL,"SHARK BAY, SHIRE OF","GASCOYNE, Development Region",9,GASCOYNE M.F.,Gascoyne Platform,20230306
S0004288,Beta Hunt,Beta Hunt Underground Nickel,Mine,Decline,Operating,J02719,Kambalda Nickel / RNC,121.689960999999997,-31.242553999999998,375248,6542777,51,Ni Cu,Steel alloy metal,NICKEL,,N,,,,,Public,3235,LAKE LEFROY,SH51-14,WIDGIEMOOLTHA,"COOLGARDIE, SHIRE OF","GOLDFIELDS-ESPERANCE, Development Region",15,COOLGARDIE,Eastern Goldfields Superterrane,20230306
S0004294,Ubini E,Ubini East / Shire,Mine,Openpit,Operating,J02568,Ubini East Sand / Coolgardie Shire,120.975915000000001,-30.977442000000000,306704,6571140,51,Sd,Construction material,CONSTRUCTION MATERIALS,,N,,,,,Public,3036,DUNNSVILLE,SH51-09,KALGOORLIE,"COOLGARDIE, SHIRE OF","GOLDFIELDS-ESPERANCE, Development Region",15,COOLGARDIE,Yilgarn Craton granites,20230306
S0004297,Riverina Pit,Riverina Openpit,Mine,Openpit,Operating,J00084,Davyhurst - Lady Ida - Mulline - Riverina - Siberia Gold,120.564971999999997,-29.744602000000000,264511,6707030,51,Au Ag,Precious metal,GOLD,Riverina,N,,Y,,Operating Mine,Public,3038,RIVERINA,SH51-05,MENZIES,"MENZIES, SHIRE OF","GOLDFIELDS-ESPERANCE, Development Region",30,ULARRING,Eastern Goldfields Superterrane,20230306
S0004316,Mindijup/TT Sand,Mindijup / TT Sand,Mine,Openpit,Operating,J01658,Mindijup / TT Sand,118.076785999999998,-34.768864999999998,598536,6152060,50,Sisd,Industrial mineral,SILICA - SILICA SAND,Mindijup,Y,Sisd,Y,,Operating Mine,Public,2528,MANYPEAKS,SI50-11,MOUNT BARKER,"ALBANY, CITY OF","GREAT SOUTHERN, Development Region",70,SOUTH WEST M.F.,Esperance Shelf,20230306
S0004356,Ben Hur Central,Ben Hur Central,Mine,Openpit,Under Development,J05856,Ben Hur,122.367203000000003,-28.167249999999999,437877,6884108,51,Au Ag,Precious metal,GOLD,,N,,,,,Public,3341,MOUNT VARDEN,SH51-02,LAVERTON,"LAVERTON, SHIRE OF","GOLDFIELDS-ESPERANCE, Development Region",38,MT. MARGARET,Burtville Terrane,20230306
S0004462,Cobra,Cobra - Marda,Mine,Unspecified,Operating,J02854,Marda / Southern Cross,119.247803000000005,-30.193420000000000,716401,6657646,50,Au Ag,Precious metal,GOLD,Cobra,N,,Y,,Operating Mine,Public,2737,JACKSON,SH50-12,JACKSON,"YILGARN, SHIRE OF","WHEATBELT, Development Region",77,YILGARN M.F.,Youanmi Terrane,20230306
S0004477,Ellendale 9 East,Ellendale 9 East (Central),Mine,Openpit,Under Development,J00770,Ellendale,124.859080000000006,-17.563820000000000,697314,8057104,51,Dmd,Precious mineral,DIAMOND,,N,,,,,Public,3862,ELLENDALE,SE51-08,LENNARD RIVER,"DERBY/WEST KIMBERLEY, SHIRE OF","KIMBERLEY, Development Region",4,WEST KIMBERLEY M.F.,Lennard Shelf,20230306
S0004494,Halls Creek North/Guerinoni,Halls Creek North / Guerinoni,Mine,Openpit,Operating,J01700,Halls Creek North / Guerinoni,127.685957999999999,-18.184826000000001,361028,7988868,52,Sd,Construction material,CONSTRUCTION MATERIALS,,N,,,,,Public,4461,HALLS CREEK,SE52-10,GORDON DOWNS,"HALLS CREEK, SHIRE OF","KIMBERLEY, Development Region",80,KIMBERLEY M.F.,"Lamboo Province, Central Zone",20230306
S0004505,Golden Delicious,Golden Delicious,Mine,Openpit,Operating,J01703,Sunrise Dam,122.459342000000007,-29.013648000000000,447346,6790382,51,Au Ag,Precious metal,GOLD,,N,,,,,Public,3339,LAKE CAREY,SH51-06,EDJUDINA,"LAVERTON, SHIRE OF","GOLDFIELDS-ESPERANCE, Development Region",38,MT. MARGARET,Eastern Goldfields Superterrane,20230306
S0004623,Turner River M45/707,Turner River M45/707 / Hanson,Mine,Openpit,Operating,J01724,Turner River / Hanson Construction,118.518557999999999,-20.608404000000000,658244,7720452,50,Gvl Sd,Construction material,CONSTRUCTION MATERIALS,,N,,,,,Public,2656,WALLARINGA,SF50-04,PORT HEDLAND,"PORT HEDLAND, TOWN OF","PILBARA, Development Region",45,MARBLE BAR,Mallina Basin,20230306
S0004631,Vettersberg Sand Hill,Vettersberg Sand Hill,Mine,Openpit,Operating,J01727,Vettersberg Sand Hill,121.225870999999998,-30.282620999999999,329363,6648565,51,Sd,Construction material,CONSTRUCTION MATERIALS,,N,,,,,Public,3137,BARDOC,SH51-09,KALGOORLIE,"KALGOORLIE-BOULDER, CITY OF","GOLDFIELDS-ESPERANCE, Development Region",24,BROAD ARROW M.F.,Eastern Goldfields Superterrane,20230306
S0004708,Flynn Drive/Lmst Bld Block,Flynn Drive Neerabup / Limestone Building Block,Mine,Openpit,Operating,J01743,Flynn Drive Neerabup / Limestone Bld Block,115.771202000000002,-31.687071000000000,383536,6493593,50,Lst,Construction material,LIMESTONE - LIMESAND,,N,,,,,Public,2034,PERTH,SH50-14,PERTH,"WANNEROO, CITY OF",METRO,70,SOUTH WEST M.F.,Mandurah Terrace,20230306
S0004739,East Chapman/Kimberley Quarry,Geraldton-Mount Magnet Rd Lot 20 East Chapman / Kimberley Quarry,Mine,Openpit,Operating,J01745,Chapman Valley - Beatenally Hill,114.791922000000000,-28.690719000000001,284267,6824283,50,Agg Aggm,Construction material,CONSTRUCTION MATERIALS,,N,,,,,Public,1840,GERALDTON,SH50-01,GERALDTON,"GREATER GERALDTON, CITY OF","MID-WEST, Development Region",70,SOUTH WEST M.F.,"Pinjarra Orogen, Northampton Inlier",20230306
S0004765,Merredin/Holcim,Merredin / Holcim,Mine,Openpit,Operating,J01762,Merredin / Holcim,118.302002000000002,-31.445709000000001,623720,6520267,50,Agg Gvl Aggc,Construction material,CONSTRUCTION MATERIALS,,N,,,,,Public,2535,MERREDIN,SH50-15,KELLERBERRIN,"MERREDIN, SHIRE OF","WHEATBELT, Development Region",70,SOUTH WEST M.F.,Yilgarn Craton granites,20230306
S0004771,Sandy Hill/Holcim,Sandy Hill / Holcim,Mine,Openpit,Operating,J04450,Turner River Dune Sand / Holcim,118.473894999999999,-20.450547000000000,653747,7737969,50,Sd Gvl,Construction material,CONSTRUCTION MATERIALS,,N,,,,,Public,2557,THOUIN,SF50-03,ROEBOURNE,"PORT HEDLAND, TOWN OF","PILBARA, Development Region",45,MARBLE BAR,Sisters Supersuite,20230306
S0004775,Turner River / Boral,Turner River / Boral,Mine,Openpit,Operating,J01764,Turner River East Sand / Boral,118.479462999999996,-20.451105999999999,654327,7737902,50,Sd,Construction material,CONSTRUCTION MATERIALS,,N,,,,,Public,2557,THOUIN,SF50-03,ROEBOURNE,"PORT HEDLAND, TOWN OF","PILBARA, Development Region",45,MARBLE BAR,Sisters Supersuite,20230306
S0004779,Tabba Tabba/Boral,Tabba Tabba / Boral,Mine,Openpit,Operating,J01415,Pilbara Area / Boral,118.992847999999995,-20.368400999999999,708005,7746491,50,Agg Aggc Brck Gran Sd,Construction material,CONSTRUCTION MATERIALS,,N,,,,,Public,2657,PORT HEDLAND,SF50-04,PORT HEDLAND,"PORT HEDLAND, TOWN OF","PILBARA, Development Region",45,MARBLE BAR,Sisters Supersuite,20230306
S0004780,Wickham Sand/RWAC,Wickham Sand / RWAC,Mine,Openpit,Operating,J01769,Wickham Sand / RWAC,117.146714000000003,-20.648719000000000,515283,7716722,50,Sd,Construction material,CONSTRUCTION MATERIALS,,N,,,,,Public,2356,ROEBOURNE,SF50-03,ROEBOURNE,"KARRATHA, CITY OF","PILBARA, Development Region",47,WEST PILBARA M.F.,Gorge Creek Basin,20230306
S0004791,Darlot UG,Darlot Underground,Mine,Decline,Operating,J00082,Darlot,121.268897999999993,-27.887529000000001,329603,6914052,51,Au Ag,Precious metal,GOLD,Darlot,N,,Y,,Operating Mine,Public,3142,DARLOT,SG51-13,SIR SAMUEL,"LEONORA, SHIRE OF","GOLDFIELDS-ESPERANCE, Development Region",37,MT. MALCOLM,Eastern Goldfields Superterrane,20230306
S0004793,Wattleup South / Italia,Wattleup - Moylan Road Southern Extension / Italia & Cockburn,Mine,Openpit,Operating,J00848,Coogee / Cockburn,115.804174000000003,-32.181505000000001,387267,6438819,50,Lst Sd,Construction material,LIMESTONE - LIMESAND,,N,,,,,Public,2033,FREMANTLE,SI50-02,PINJARRA,"KWINANA, CITY OF",METRO,70,SOUTH WEST M.F.,Mandurah Terrace,20230306
S0004796,Maralla Rd Silica,Maralla Road Silica Sand,Mine,Openpit,Operating,J03812,Maralla Road Silica Sand,115.970415000000003,-31.738809000000000,402473,6488054,50,Sisd Sd,Industrial mineral,SILICA - SILICA SAND,Maralla,Y,"Sisd, Sd",Y,,Operating Mine,Public,2034,PERTH,SH50-14,PERTH,"SWAN, CITY OF",METRO,70,SOUTH WEST M.F.,Mandurah Terrace,20230306
S0004813,Cardup/Australbricks,Cardup / Australbricks,Mine,Openpit,Operating,J01794,Cardup - Keysbrook - Toodyay / Austral Bricks,116.018406999999996,-32.240350999999997,407524,6432500,50,Shale,Construction material,CLAYS,,N,,,,,Public,2133,JARRAHDALE,SI50-02,PINJARRA,"SERPENTINE-JARRAHDALE, SHIRE OF","PEEL, Development Region",70,SOUTH WEST M.F.,Cardup Basin,20230306
S0004814,Peel Estate/Cumming,Peel Estate / Cumming,Mine,Openpit,Operating,J01795,Peel Estate / Cumming,115.910301000000004,-32.241531000000002,397340,6432271,50,Sd,Construction material,CONSTRUCTION MATERIALS,,N,,,,,Public,2033,FREMANTLE,SI50-02,PINJARRA,"SERPENTINE-JARRAHDALE, SHIRE OF","PEEL, Development Region",70,SOUTH WEST M.F.,Mandurah Terrace,20230306
S0004815,King Rd Lot 422 Oldbury,King Road Lot 422 Oldbury / CIM,Mine,Openpit,Operating,J01796,Peel Estate / Cook Industrial Minerals,115.912535000000005,-32.247055000000003,397556,6431660,50,Sd,Construction material,CONSTRUCTION MATERIALS,,N,,,,,Public,2033,FREMANTLE,SI50-02,PINJARRA,"SERPENTINE-JARRAHDALE, SHIRE OF","PEEL, Development Region",70,SOUTH WEST M.F.,Mandurah Terrace,20230306
S0004820,Walyunga Rd Lot 5/Stargaze,Walyunga Rd Lot 5 Bullsbrook / Stargaze,Mine,Openpit,Operating,J01801,Upper Swan - Walyunga / Stargaze,116.038364999999999,-31.730207000000000,408902,6489066,50,Sd Clay,Construction material,CONSTRUCTION MATERIALS,,N,,,,,Public,2134,WOOROLOO,SH50-14,PERTH,"SWAN, CITY OF",METRO,70,SOUTH WEST M.F.,South West Terrane,20230306
S0004836,Millar Rd Lot 2170/WA Lst,Millar Rd Lot 2170 Baldivis / WA Limestone,Mine,Openpit,Operating,J01814,Baldivis - Millar Rd / WA Limestone,115.821417999999994,-32.288511999999997,389023,6426974,50,Lst Sd,Construction material,LIMESTONE - LIMESAND,,N,,,,,Public,2033,FREMANTLE,SI50-02,PINJARRA,"ROCKINGHAM, CITY OF",METRO,70,SOUTH WEST M.F.,Mandurah Terrace,20230306
S0004837,Kerosene Lane Lot 800/WA Lmst,Kerosene Lane Lot 800 Baldivis / WA Limestone,Mine,Openpit,Operating,J01814,Baldivis - Millar Rd / WA Limestone,115.815708999999998,-32.296011999999997,388495,6426137,50,Lst Sd,Construction material,LIMESTONE - LIMESAND,,N,,,,,Public,2033,FREMANTLE,SI50-02,PINJARRA,"ROCKINGHAM, CITY OF",METRO,70,SOUTH WEST M.F.,Mandurah Terrace,20230306
S0004839,Paganoni Rd Lot 500/Hanson,Paganoni Rd Lot 500 Karnup / Hanson,Mine,Openpit,Operating,J01816,Singleton East - Paganoni Road / Hanson Constructions,115.788256000000004,-32.430787000000002,386079,6411167,50,Sd,Construction material,CONSTRUCTION MATERIALS,,N,,,,,Public,2033,FREMANTLE,SI50-02,PINJARRA,"ROCKINGHAM, CITY OF",METRO,70,SOUTH WEST M.F.,Mandurah Terrace,20230306
S0004840,Postans Rd Lot 571-572 Mathews Quarry,Postans Rd Lot 571-572 Mathews Quarry,Mine,Openpit,Operating,J02266,Postans / Stoneridge,115.806883999999997,-32.187359000000001,387530,6438173,50,Lst,Construction material,LIMESTONE - LIMESAND,,N,,,,,Public,2033,FREMANTLE,SI50-02,PINJARRA,"KWINANA, CITY OF",METRO,70,SOUTH WEST M.F.,Mandurah Terrace,20230306
S0004841,Postans Rd Hope Valley Lot 501 / Italia Stone,Postans Rd Hope Valley Lot 501 / Italia Stone,Mine,Openpit,Operating,J01512,Wattleup / WA Limestone,115.808824999999999,-32.196147000000003,387724,6437201,50,Lst Lsd,Construction material,LIMESTONE - LIMESAND,,N,,,,,Public,2033,FREMANTLE,SI50-02,PINJARRA,"KWINANA, CITY OF",METRO,70,SOUTH WEST M.F.,Mandurah Terrace,20230306
S0004843,Johnson Rd Wellard/ Hanson,Johnson Rd Lot 2 Wellard / Hanson,Mine,Openpit,Operating,J01819,Wellard / Hanson Construction,115.852798000000007,-32.260151000000000,391944,6430150,50,Sd,Construction material,CONSTRUCTION MATERIALS,,N,,,,,Public,2033,FREMANTLE,SI50-02,PINJARRA,"KWINANA, CITY OF",METRO,70,SOUTH WEST M.F.,Mandurah Terrace,20230306
S0004877,Santa,Santa,Mine,Decline,Operating,J00251,Randalls - Mt Monger,122.209736000000007,-31.040614999999999,424587,6565628,51,Au Ag,Precious metal,GOLD,Santa,N,,Y,,Operating Mine,Public,3335,MOUNT BELCHES,SH51-14,WIDGIEMOOLTHA,"KALGOORLIE-BOULDER, CITY OF","GOLDFIELDS-ESPERANCE, Development Region",25,BULONG,Eastern Goldfields Superterrane,20230306
S0004886,Janet Ivy,Janet Ivy,Mine,Openpit,Operating,J00019,Binduli,121.383328000000006,-30.774467000000001,345291,6594275,51,Au Ag,Precious metal,GOLD,Janet Ivy,N,,Y,,Operating Mine,Public,3136,KALGOORLIE,SH51-09,KALGOORLIE,"KALGOORLIE-BOULDER, CITY OF","GOLDFIELDS-ESPERANCE, Development Region",26,EAST COOLGARDIE,Eastern Goldfields Superterrane,20230306
S0004910,Nickol Bay Northwest / Karratha Earthmoving,Nickol Bay Northwest / Karratha Earthmoving,Mine,Openpit,Operating,J01549,Nickol Bay / Karratha Earthmoving,116.898696999999999,-20.726800999999998,489453,7708084,50,Sd,Construction material,CONSTRUCTION MATERIALS,,N,,,,,Public,2256,DAMPIER,SF50-02,DAMPIER,"KARRATHA, CITY OF","PILBARA, Development Region",47,WEST PILBARA M.F.,Gorge Creek Basin,20230306
S0004924,Karratha Stone/North,Karratha Stone / North,Mine,Openpit,Operating,J01855,Karratha Stone / North,116.942828000000006,-21.071238000000001,494061,7669967,50,Sdst Dst,Construction material,DIMENSION STONE,,N,,,,,Public,2255,PINDERI HILLS,SF50-06,YARRALOOLA,"KARRATHA, CITY OF","PILBARA, Development Region",47,WEST PILBARA M.F.,Northwest Pilbara Sub-basin,20230306
S0004988,Vivien,Vivien,Mine,Openpit,Operating,J04242,Vivien,120.568522000000002,-27.976476000000002,260839,6903022,51,Au Ag,Precious metal,GOLD,,N,,,,,Public,3042,SIR SAMUEL,SG51-13,SIR SAMUEL,"LEONORA, SHIRE OF","GOLDFIELDS-ESPERANCE, Development Region",36,LAWLERS,Eastern Goldfields Superterrane,20230306
S0004991,Atriedes,Atriedes - Karonie,Mine,Openpit,Operating,J00184,Aldiss - Karonie,122.559574999999995,-31.065608000000001,457983,6563043,51,Au Ag,Precious metal,GOLD,,N,,,,,Public,3435,ERAYINIA,SH51-14,WIDGIEMOOLTHA,"KALGOORLIE-BOULDER, CITY OF","GOLDFIELDS-ESPERANCE, Development Region",28,KURNALPI,Eastern Goldfields Superterrane,20230306
S0005001,Marillana Ck Central 1,Marillana Creek Central Mesa 1,Mine,Openpit,Operating,J00571,Marillana Creek - Yandi / BHPB,119.065498000000005,-22.718639000000000,712144,7486149,50,Fe,Iron,IRON ORE,,N,,,,,Public,2752,WEELI WOLLI,SF50-12,ROY HILL,"EAST PILBARA, SHIRE OF","PILBARA, Development Region",47,WEST PILBARA M.F.,Hamersley Basin,20230306
S0005030,Maxwells,Maxwells,Mine,Decline,Operating,J00251,Randalls - Mt Monger,122.198931999999999,-31.081009999999999,423589,6561144,51,Au Ag,Precious metal,GOLD,Maxwells,N,,Y,,Operating Mine,Public,3335,MOUNT BELCHES,SH51-14,WIDGIEMOOLTHA,"KALGOORLIE-BOULDER, CITY OF","GOLDFIELDS-ESPERANCE, Development Region",25,BULONG,Eastern Goldfields Superterrane,20230306
S0005034,Sparks ,Sparks - Wickepin,Mine,Openpit,Operating,J01890,Wickepin Kaolin,117.728627000000003,-32.829597000000000,568196,6367368,50,Clay-white Kln,Industrial mineral,CLAYS,Sparks,Y,"Clay-white, Kln",Y,,Operating Mine,Public,2432,YEALERING,SI50-03,CORRIGIN,"WICKEPIN, SHIRE OF","WHEATBELT, Development Region",70,SOUTH WEST M.F.,Yilgarn Craton granites,20230306
S0005036,Cawse Sand-Gravel,Cawse Sand-Gravel,Mine,Openpit,Operating,J01891,Cawse / Scorpion,121.230558000000002,-30.422785999999999,330056,6633035,51,Sd Gvl,Construction material,CONSTRUCTION MATERIALS,,N,,,,,Public,3137,BARDOC,SH51-09,KALGOORLIE,"KALGOORLIE-BOULDER, CITY OF","GOLDFIELDS-ESPERANCE, Development Region",24,BROAD ARROW M.F.,Yilgarn Craton granites,20230306
S0005037,Carbarup/Hanson,Carbarup / Hanson,Mine,Openpit,Operating,J01892,Carbarup Aggregate / Hanson  Construction,117.692497000000003,-34.522739000000001,563557,6179664,50,Agg,Construction material,CONSTRUCTION MATERIALS,,N,,,,,Public,2428,MOUNT BARKER,SI50-11,MOUNT BARKER,"PLANTAGENET, SHIRE OF","GREAT SOUTHERN, Development Region",70,SOUTH WEST M.F.,Biranup Zone,20230306
S0005040,Murrin North,Murrin North (PAN Production),Mine,Openpit,Operating,J00480,Murrin Murrin / Minara,121.895499999999998,-28.747169000000000,392157,6819525,51,Ni Co,Steel alloy metal,NICKEL,Murrin North,Y,"Ni, Co",Y,,Operating Mine,Public,3240,MINERIE,SH51-02,LAVERTON,"LAVERTON, SHIRE OF","GOLDFIELDS-ESPERANCE, Development Region",39,MT. MORGANS,Eastern Goldfields Superterrane,20230306
S0005063,Otto Bore,Otto Bore,Mine,Openpit,Operating,J02419,Thunderbox Gold,121.015082000000007,-28.111004999999999,305016,6888909,51,Au Ag,Precious metal,GOLD,,N,,,,,Public,3141,WEEBO,SH51-01,LEONORA,"LEONORA, SHIRE OF","GOLDFIELDS-ESPERANCE, Development Region",36,LAWLERS,Eastern Goldfields Superterrane,20230306
S0005074,Cockeyed Bob Deeps,Cockeyed Bob Deeps,Mine,Decline,Operating,J00251,Randalls - Mt Monger,122.176786000000007,-31.088521000000000,421482,6560296,51,Au Ag,Precious metal,GOLD,Cockeyed Bob,N,,Y,,Operating Mine,Public,3335,MOUNT BELCHES,SH51-14,WIDGIEMOOLTHA,"KALGOORLIE-BOULDER, CITY OF","GOLDFIELDS-ESPERANCE, Development Region",25,BULONG,Eastern Goldfields Superterrane,20230306
S0005156,King of the Hills,King of the Hills Underground,Mine,Decline,Operating,J00186,Tarmoola - King of the Hills,121.163002000000006,-28.671458999999999,320497,6827032,51,Au Ag,Precious metal,GOLD,King of the Hills,N,,Y,,Operating Mine,Public,3140,LEONORA,SH51-01,LEONORA,"LEONORA, SHIRE OF","GOLDFIELDS-ESPERANCE, Development Region",37,MT. MALCOLM,Eastern Goldfields Superterrane,20230306
S0005315,Gilbeys,Gilbeys - Dalgaranga,Mine,Openpit,Operating,J02013,Dalgaranga - Gilbeys,117.265225999999998,-27.846240999999999,526115,6919802,50,Au Ag,Precious metal,GOLD,Gilbeys,N,,Y,,Operating Mine,Public,2342,DALGARANGA,SG50-15,CUE,"MOUNT MAGNET, SHIRE OF","MID-WEST, Development Region",59,YALGOO M.F.,Yilgarn Craton granites,20230306
S0005322,Elverdton Dumps,Elverdton Dumps,Mine,Tailings storage facility,Operating,J02016,Elverdton Dumps,120.147935000000004,-33.625027000000003,235424,6275771,51,Cu Au,Base metal,COPPER - LEAD - ZINC,Elverdton Dumps Cu-fertiliser,N,,Y,,Operating Mine,Public,2930,RAVENSTHORPE,SI51-05,RAVENSTHORPE,"RAVENSTHORPE, SHIRE OF","GOLDFIELDS-ESPERANCE, Development Region",74,PHILLIPS RIVER M.F.,Youanmi Terrane,20230306
S0005340,Jenkins Rd Lot 22 / Quarry Park,Jenkins Rd Bullsbrook Lot 22 / Quarry Park,Mine,Openpit,Operating,J02022,Bullsbrook / Quarry Park,116.050903000000005,-31.606800000000000,409970,6502755,50,Gvl,Construction material,CONSTRUCTION MATERIALS,,N,,,,,Public,2134,WOOROLOO,SH50-14,PERTH,"SWAN, CITY OF",METRO,70,SOUTH WEST M.F.,Yilgarn Craton granites,20230306
